location_name,latitude,longitude,temperature_celsius,condition_text,wind_mph,wind_degree,wind_direction,pressure_mb,pressure_in,precip_mm,precip_in,humidity,cloud,feels_like_celsius,visibility_miles,uv_index,gust_mph,air_quality_Carbon_Monoxide,air_quality_Ozone,air_quality_Nitrogen_dioxide,air_quality_Sulphur_dioxide,air_quality_PM2.5,air_quality_PM10,air_quality_us-epa-index,air_quality_gb-defra-index,sunrise,sunset,moonrise,moonset,moon_phase,moon_illumination
Ashoknagar,24.57,77.72,27.5,Partly cloudy,12.8,281,WNW,1008.0,29.77,0.0,0.0,67,26,29.7,6.0,7.0,14.8,243.7,45.8,1.7,3.1,12.6,18.5,1,2,1900-01-01 05:59:00,1900-01-01 18:41:00,1900-01-01 17:42:00,1900-01-01 03:38:00,Waxing Gibbous,93
Raisen,23.33,77.8,27.5,Sunny,9.6,287,WNW,1008.0,29.78,0.0,0.0,70,19,30.0,6.0,7.0,11.2,240.3,38.3,2.1,2.6,10.7,14.2,1,1,1900-01-01 06:00:00,1900-01-01 18:40:00,1900-01-01 17:39:00,1900-01-01 03:41:00,Waxing Gibbous,93
Chhindwara,22.07,78.93,26.3,Partly cloudy,11.4,317,NW,1009.0,29.78,0.0,0.0,70,51,28.2,6.0,7.0,13.2,220.3,57.2,0.6,1.7,16.8,20.7,2,2,1900-01-01 05:56:00,1900-01-01 18:34:00,1900-01-01 17:32:00,1900-01-01 03:39:00,Waxing Gibbous,93
Betul,21.86,77.93,25.6,Cloudy,10.5,297,WNW,1009.0,29.8,0.0,0.0,76,65,27.6,6.0,6.0,13.0,200.3,25.0,1.2,1.1,4.9,6.6,1,1,1900-01-01 06:00:00,1900-01-01 18:38:00,1900-01-01 17:36:00,1900-01-01 03:43:00,Waxing Gibbous,93
Hoshangabad,22.75,77.72,27.2,Cloudy,10.1,274,W,1009.0,29.79,0.0,0.0,74,82,29.9,6.0,6.0,11.6,257.0,30.8,2.2,1.8,11.4,14.8,1,1,1900-01-01 06:01:00,1900-01-01 18:39:00,1900-01-01 17:38:00,1900-01-01 03:42:00,Waxing Gibbous,93
Sehore,23.2,77.08,25.9,Cloudy,9.8,287,WNW,1009.0,29.79,0.0,0.0,77,68,28.1,6.0,6.0,11.4,223.6,26.1,3.1,3.3,7.9,10.5,1,1,1900-01-01 06:03:00,1900-01-01 18:42:00,1900-01-01 17:42:00,1900-01-01 03:44:00,Waxing Gibbous,93
Jabalpur,23.17,79.95,28.0,Mist,9.4,280,W,1010.0,29.83,0.1,0.0,70,50,31.0,3.0,6.0,13.9,263.7,56.5,1.2,1.8,17.1,23.1,2,2,1900-01-01 05:51:00,1900-01-01 18:31:00,1900-01-01 17:30:00,1900-01-01 03:32:00,Waxing Gibbous,93
Narsimhapur,22.95,79.2,27.7,Sunny,11.0,277,W,1008.0,29.77,0.0,0.0,71,21,30.5,6.0,7.0,12.5,260.4,52.9,1.2,1.8,17.3,23.7,2,2,1900-01-01 05:55:00,1900-01-01 18:34:00,1900-01-01 17:33:00,1900-01-01 03:36:00,Waxing Gibbous,93
Panna,24.72,80.2,30.0,Sunny,11.6,288,WNW,1007.0,29.72,0.0,0.0,60,22,33.1,6.0,8.0,13.4,243.7,79.4,1.1,5.4,27.4,35.5,2,3,1900-01-01 05:49:00,1900-01-01 18:31:00,1900-01-01 17:32:00,1900-01-01 03:27:00,Waxing Gibbous,93
Ujjain,23.18,75.77,26.0,Mist,11.9,300,WNW,1012.0,29.88,0.0,0.0,74,50,27.8,3.0,6.0,14.1,210.3,32.2,1.7,1.7,5.7,7.6,1,1,1900-01-01 06:08:00,1900-01-01 18:48:00,1900-01-01 17:47:00,1900-01-01 03:49:00,Waxing Gibbous,93
Rewa,24.53,81.3,30.6,Partly cloudy,9.8,284,WNW,1006.0,29.72,0.0,0.0,57,58,33.5,6.0,8.0,11.4,260.4,80.8,2.0,7.6,21.9,26.8,2,2,1900-01-01 05:45:00,1900-01-01 18:26:00,1900-01-01 17:27:00,1900-01-01 03:23:00,Waxing Gibbous,93
Dindori,22.95,81.08,30.3,Patchy rain possible,5.4,316,NW,1008.0,29.76,0.1,0.0,55,70,32.9,6.0,7.0,6.5,210.3,68.0,0.6,0.7,12.5,15.6,1,2,1900-01-01 05:47:00,1900-01-01 18:26:00,1900-01-01 17:25:00,1900-01-01 03:28:00,Waxing Gibbous,93
Balaghat,21.78,80.25,28.3,Partly cloudy,6.7,300,WNW,1008.0,29.75,0.0,0.0,67,29,31.1,6.0,7.0,7.8,257.0,68.0,1.6,1.0,15.9,20.7,2,2,1900-01-01 05:51:00,1900-01-01 18:28:00,1900-01-01 17:26:00,1900-01-01 03:34:00,Waxing Gibbous,93
Barwani,22.03,74.9,27.2,Overcast,8.9,263,W,1009.0,29.8,0.0,0.0,65,88,29.1,6.0,6.0,10.3,205.3,25.0,2.7,4.8,6.2,8.2,1,1,1900-01-01 06:12:00,1900-01-01 18:50:00,1900-01-01 17:49:00,1900-01-01 03:55:00,Waxing Gibbous,93
Satna,24.58,80.83,30.1,Partly cloudy,11.2,288,WNW,1007.0,29.72,0.0,0.0,58,46,33.1,6.0,8.0,13.0,237.0,73.0,1.0,2.3,19.3,24.2,2,2,1900-01-01 05:47:00,1900-01-01 18:28:00,1900-01-01 17:29:00,1900-01-01 03:25:00,Waxing Gibbous,93
Chhatarpur,24.9,79.6,30.0,Sunny,11.6,288,WNW,1007.0,29.72,0.0,0.0,60,22,33.1,6.0,8.0,13.4,243.7,79.4,1.1,5.4,27.4,35.5,2,3,1900-01-01 05:51:00,1900-01-01 18:34:00,1900-01-01 17:35:00,1900-01-01 03:29:00,Waxing Gibbous,93
Indore,22.72,75.83,26.0,Mist,11.9,300,WNW,1012.0,29.88,0.0,0.0,74,50,28.0,3.0,6.0,13.9,227.0,27.9,2.8,3.2,6.2,8.0,1,1,1900-01-01 06:08:00,1900-01-01 18:47:00,1900-01-01 17:46:00,1900-01-01 03:50:00,Waxing Gibbous,93
Ratlam,23.32,75.07,26.5,Partly cloudy,14.1,255,WSW,1009.0,29.8,0.0,0.0,64,49,28.1,6.0,7.0,16.1,208.6,32.9,1.9,2.8,8.0,10.8,1,1,1900-01-01 06:10:00,1900-01-01 18:51:00,1900-01-01 17:50:00,1900-01-01 03:52:00,Waxing Gibbous,93
Harda,22.33,77.1,28.4,Partly cloudy,12.5,285,WNW,1009.0,29.79,0.0,0.0,64,56,30.8,6.0,7.0,14.3,205.3,29.3,1.5,1.7,6.8,9.4,1,1,1900-01-01 06:03:00,1900-01-01 18:42:00,1900-01-01 17:40:00,1900-01-01 03:46:00,Waxing Gibbous,93
Sagar,23.83,78.72,26.9,Sunny,11.4,288,WNW,1008.0,29.77,0.0,0.0,71,11,29.1,6.0,7.0,13.2,253.7,56.5,1.1,1.7,18.5,25.5,2,2,1900-01-01 05:56:00,1900-01-01 18:36:00,1900-01-01 17:36:00,1900-01-01 03:36:00,Waxing Gibbous,93
Neemuch,24.48,74.87,26.7,Sunny,15.0,240,WSW,1008.0,29.77,0.0,0.0,66,3,28.4,6.0,7.0,17.2,220.3,36.8,2.2,1.5,9.9,14.3,1,1,1900-01-01 06:10:00,1900-01-01 18:52:00,1900-01-01 17:53:00,1900-01-01 03:50:00,Waxing Gibbous,93
Tikamgarh,24.73,78.83,28.1,Patchy rain possible,11.0,280,W,1007.0,29.75,0.3,0.01,65,72,30.4,5.0,6.0,15.7,247.0,70.1,1.2,2.7,22.8,33.9,2,2,1900-01-01 05:55:00,1900-01-01 18:37:00,1900-01-01 17:38:00,1900-01-01 03:33:00,Waxing Gibbous,93
Guna,24.65,77.32,27.4,Sunny,12.5,273,W,1008.0,29.77,0.0,0.0,69,14,29.7,6.0,7.0,14.3,243.7,45.8,1.7,2.4,13.1,20.5,1,2,1900-01-01 06:01:00,1900-01-01 18:43:00,1900-01-01 17:44:00,1900-01-01 03:40:00,Waxing Gibbous,93
Dewas,22.97,76.07,26.0,Mist,11.9,300,WNW,1012.0,29.88,0.0,0.0,74,50,28.2,3.0,7.0,14.5,220.3,30.0,2.4,2.3,5.2,7.0,1,1,1900-01-01 06:07:00,1900-01-01 18:46:00,1900-01-01 17:46:00,1900-01-01 03:49:00,Waxing Gibbous,93
Mandsaur,24.07,75.07,27.0,Sunny,14.8,247,WSW,1009.0,29.78,0.0,0.0,66,6,28.9,6.0,7.0,17.0,247.0,31.5,2.8,4.4,13.5,17.1,1,2,1900-01-01 06:10:00,1900-01-01 18:51:00,1900-01-01 17:52:00,1900-01-01 03:50:00,Waxing Gibbous,93
Khargone,21.82,75.6,27.2,Overcast,8.9,263,W,1009.0,29.8,0.0,0.0,65,88,29.1,6.0,6.0,10.3,205.3,25.0,2.7,4.8,6.2,8.2,1,1,1900-01-01 06:10:00,1900-01-01 18:47:00,1900-01-01 17:45:00,1900-01-01 03:53:00,Waxing Gibbous,93
Sheopur,25.67,76.7,29.9,Sunny,10.5,259,W,1007.0,29.73,0.0,0.0,57,5,32.3,6.0,7.0,12.1,227.0,70.8,1.3,2.6,14.4,26.3,1,2,1900-01-01 06:02:00,1900-01-01 18:46:00,1900-01-01 17:48:00,1900-01-01 03:40:00,Waxing Gibbous,93
Morena,26.5,78.0,31.6,Sunny,13.0,271,W,1006.0,29.7,0.0,0.0,53,11,34.7,6.0,8.0,15.0,233.7,64.4,1.1,1.1,16.4,30.8,2,2,1900-01-01 05:56:00,1900-01-01 18:41:00,1900-01-01 17:45:00,1900-01-01 03:32:00,Waxing Gibbous,93
Bhind,26.56,78.79,32.4,Patchy rain possible,12.8,282,WNW,1005.0,29.68,0.1,0.0,50,89,35.6,6.0,7.0,15.0,247.0,68.0,1.3,1.2,17.3,28.2,2,2,1900-01-01 05:53:00,1900-01-01 18:38:00,1900-01-01 17:41:00,1900-01-01 03:29:00,Waxing Gibbous,93
Jhabua,22.77,74.6,27.3,Cloudy,13.0,249,WSW,1009.0,29.8,0.0,0.0,63,68,29.1,6.0,6.0,15.0,217.0,31.1,2.4,2.6,8.9,12.5,1,1,1900-01-01 06:13:00,1900-01-01 18:52:00,1900-01-01 17:51:00,1900-01-01 03:55:00,Waxing Gibbous,93
Seoni,22.08,79.53,26.7,Partly cloudy,10.7,329,NNW,1008.0,29.77,0.0,0.0,69,57,28.7,6.0,7.0,12.3,203.6,60.8,0.4,0.7,8.0,12.0,1,1,1900-01-01 05:54:00,1900-01-01 18:32:00,1900-01-01 17:29:00,1900-01-01 03:36:00,Waxing Gibbous,93
Khandwa,21.83,76.33,28.2,Cloudy,10.1,285,WNW,1009.0,29.79,0.0,0.0,64,73,30.6,6.0,6.0,11.6,198.6,30.0,1.4,2.1,6.5,9.1,1,1,1900-01-01 06:07:00,1900-01-01 18:44:00,1900-01-01 17:42:00,1900-01-01 03:50:00,Waxing Gibbous,93
Umaria,23.53,80.83,27.0,Patchy rain possible,9.6,296,WNW,1007.0,29.75,0.2,0.01,74,86,29.6,5.0,6.0,13.0,230.3,65.8,4.7,14.8,18.2,23.0,2,2,1900-01-01 05:48:00,1900-01-01 18:28:00,1900-01-01 17:27:00,1900-01-01 03:27:00,Waxing Gibbous,93
Gwalior,26.22,78.18,31.1,Sunny,13.0,278,W,1006.0,29.7,0.0,0.0,55,12,34.3,6.0,8.0,15.0,233.7,68.7,1.2,1.5,16.7,29.9,2,2,1900-01-01 05:56:00,1900-01-01 18:40:00,1900-01-01 17:43:00,1900-01-01 03:32:00,Waxing Gibbous,93
Damoh,23.83,79.45,28.8,Sunny,10.3,294,WNW,1007.0,29.75,0.0,0.0,64,16,31.6,6.0,7.0,11.9,237.0,65.1,0.8,2.7,19.9,27.0,2,2,1900-01-01 05:53:00,1900-01-01 18:33:00,1900-01-01 17:33:00,1900-01-01 03:33:00,Waxing Gibbous,93
Dhar,22.6,75.3,26.0,Mist,11.9,300,WNW,1012.0,29.88,0.0,0.0,74,50,27.6,3.0,6.0,15.4,203.6,30.0,1.5,1.4,6.2,8.1,1,1,1900-01-01 06:10:00,1900-01-01 18:49:00,1900-01-01 17:48:00,1900-01-01 03:53:00,Waxing Gibbous,93
Katni,20.3,85.72,32.0,Mist,10.5,320,NW,1005.0,29.68,0.0,0.0,63,50,34.2,2.0,8.0,11.6,397.2,63.7,20.1,38.6,56.4,65.0,3,7,1900-01-01 05:31:00,1900-01-01 18:06:00,1900-01-01 17:00:00,1900-01-01 03:14:00,Waxing Gibbous,93
Sidhi,24.42,81.88,30.1,Partly cloudy,9.2,281,WNW,1006.0,29.72,0.0,0.0,60,39,33.3,6.0,8.0,10.5,257.0,76.5,1.3,4.7,21.9,26.6,2,2,1900-01-01 05:43:00,1900-01-01 18:24:00,1900-01-01 17:24:00,1900-01-01 03:21:00,Waxing Gibbous,93
Alirajpur,22.3,74.35,28.5,Cloudy,12.3,266,W,1009.0,29.79,0.0,0.0,61,85,30.5,6.0,6.0,14.1,208.6,29.0,2.8,2.4,9.5,13.5,1,1,1900-01-01 06:14:00,1900-01-01 18:53:00,1900-01-01 17:51:00,1900-01-01 03:57:00,Waxing Gibbous,93
Bhopal,23.27,77.4,26.9,Partly cloudy,9.2,288,WNW,1009.0,29.79,0.0,0.0,72,30,29.3,6.0,7.0,10.5,230.3,25.4,2.9,3.0,8.4,11.3,1,1,1900-01-01 06:01:00,1900-01-01 18:41:00,1900-01-01 17:41:00,1900-01-01 03:42:00,Waxing Gibbous,93
Rajgarh,27.23,76.63,30.8,Sunny,10.7,261,W,1006.0,29.7,0.0,0.0,53,6,33.2,6.0,8.0,12.3,223.6,59.4,1.9,0.9,20.8,93.6,2,2,1900-01-01 06:01:00,1900-01-01 18:48:00,1900-01-01 17:52:00,1900-01-01 03:36:00,Waxing Gibbous,93
Mandla,22.6,80.38,27.0,Patchy rain possible,7.6,311,NW,1008.0,29.77,0.2,0.01,72,77,29.5,6.0,6.0,10.3,243.7,58.7,1.1,1.2,15.0,19.6,1,2,1900-01-01 05:50:00,1900-01-01 18:29:00,1900-01-01 17:27:00,1900-01-01 03:31:00,Waxing Gibbous,93
Shajapur,23.43,76.27,26.9,Sunny,13.0,262,W,1009.0,29.79,0.0,0.0,67,17,28.8,6.0,7.0,15.0,223.6,35.1,2.6,3.7,10.7,14.8,1,1,1900-01-01 06:06:00,1900-01-01 18:46:00,1900-01-01 17:46:00,1900-01-01 03:47:00,Waxing Gibbous,93
Shivpuri,25.43,77.65,27.7,Sunny,13.4,269,W,1007.0,29.75,0.0,0.0,67,12,30.0,6.0,7.0,15.4,240.3,82.3,2.3,7.0,27.2,42.5,2,3,1900-01-01 05:59:00,1900-01-01 18:42:00,1900-01-01 17:44:00,1900-01-01 03:36:00,Waxing Gibbous,93
Datia,25.67,78.47,30.2,Patchy rain possible,11.9,280,W,1006.0,29.72,0.1,0.0,59,83,33.3,6.0,7.0,14.5,243.7,87.3,2.0,8.5,30.1,43.3,2,3,1900-01-01 05:55:00,1900-01-01 18:39:00,1900-01-01 17:41:00,1900-01-01 03:32:00,Waxing Gibbous,93
Burhanpur,21.3,76.23,28.6,Cloudy,8.3,278,W,1009.0,29.8,0.0,0.0,64,81,31.1,6.0,6.0,9.6,193.6,30.8,0.6,0.7,3.3,6.0,1,1,1900-01-01 06:07:00,1900-01-01 18:44:00,1900-01-01 17:42:00,1900-01-01 03:52:00,Waxing Gibbous,93
Anuppur,23.1,81.68,27.6,Patchy rain possible,7.2,299,WNW,1007.0,29.74,0.2,0.01,63,72,29.4,6.0,6.0,9.4,213.6,79.4,4.8,19.6,17.9,22.8,2,2,1900-01-01 05:45:00,1900-01-01 18:24:00,1900-01-01 17:23:00,1900-01-01 03:25:00,Waxing Gibbous,93
Shahdol,23.28,81.35,27.7,Patchy rain possible,8.1,296,WNW,1007.0,29.74,0.5,0.02,68,82,30.2,5.0,6.0,12.5,243.7,65.1,1.2,1.2,17.1,21.1,2,2,1900-01-01 05:46:00,1900-01-01 18:25:00,1900-01-01 17:24:00,1900-01-01 03:26:00,Waxing Gibbous,93
Vidisha,23.53,77.82,27.6,Sunny,9.6,287,WNW,1008.0,29.77,0.0,0.0,70,19,30.1,6.0,7.0,11.2,240.3,38.3,2.1,2.6,10.7,14.2,1,1,1900-01-01 05:59:00,1900-01-01 18:40:00,1900-01-01 17:39:00,1900-01-01 03:40:00,Waxing Gibbous,93
Una,20.82,71.03,29.2,Partly cloudy,12.3,252,WSW,1008.0,29.78,0.0,0.0,61,52,31.7,6.0,7.0,14.5,191.9,36.1,1.3,3.2,13.7,24.3,1,2,1900-01-01 06:29:00,1900-01-01 19:05:00,1900-01-01 18:02:00,1900-01-01 04:14:00,Waxing Gibbous,93
Solan,30.92,77.12,20.7,Sunny,5.1,301,WNW,1009.0,29.79,0.0,0.0,59,7,20.7,6.0,6.0,8.9,433.9,125.9,2.3,10.5,27.8,30.9,2,3,1900-01-01 05:56:00,1900-01-01 18:49:00,1900-01-01 17:58:00,1900-01-01 03:25:00,Waxing Gibbous,93
Sirmaur,24.85,81.38,31.8,Patchy rain possible,10.3,280,W,1006.0,29.7,0.1,0.0,54,82,35.4,6.0,7.0,12.3,240.3,71.5,0.8,2.8,18.3,24.4,2,2,1900-01-01 05:44:00,1900-01-01 18:26:00,1900-01-01 17:27:00,1900-01-01 03:22:00,Waxing Gibbous,93
Chamba,32.57,76.13,20.3,Sunny,6.3,244,WSW,1010.0,29.83,0.0,0.0,64,24,20.2,6.0,6.0,7.2,423.9,128.8,6.4,2.1,25.3,32.3,2,3,1900-01-01 05:58:00,1900-01-01 18:55:00,1900-01-01 18:05:00,1900-01-01 03:25:00,Waxing Gibbous,93
Shimla,31.1,77.17,20.7,Sunny,5.1,301,WNW,1009.0,29.79,0.0,0.0,59,7,20.7,6.0,6.0,8.9,433.9,125.9,2.3,10.5,27.8,30.9,2,3,1900-01-01 05:55:00,1900-01-01 18:49:00,1900-01-01 17:58:00,1900-01-01 03:24:00,Waxing Gibbous,93
Bilaspur,22.08,82.15,30.9,Sunny,3.6,333,NNW,1006.0,29.72,0.0,0.0,51,12,33.1,6.0,8.0,4.0,250.3,69.4,0.9,0.8,16.9,20.8,2,2,1900-01-01 05:44:00,1900-01-01 18:21:00,1900-01-01 17:19:00,1900-01-01 03:25:00,Waxing Gibbous,93
Kangra,32.1,76.27,23.8,Sunny,4.9,203,SSW,1009.0,29.8,0.0,0.0,62,11,25.4,6.0,6.0,5.8,467.3,128.8,11.5,2.2,23.5,27.9,2,2,1900-01-01 05:58:00,1900-01-01 18:54:00,1900-01-01 18:04:00,1900-01-01 03:25:00,Waxing Gibbous,93
Mandi,31.72,76.92,25.5,Sunny,2.7,251,WSW,1009.0,29.78,0.0,0.0,56,8,26.5,6.0,7.0,3.1,353.8,89.4,0.5,0.5,19.0,21.2,2,2,1900-01-01 05:56:00,1900-01-01 18:51:00,1900-01-01 18:00:00,1900-01-01 03:24:00,Waxing Gibbous,93
Hamirpur,25.95,80.15,30.8,Partly cloudy,8.1,282,WNW,1005.0,29.69,0.0,0.0,57,26,34.0,6.0,8.0,10.5,253.7,70.8,1.3,2.1,20.2,29.5,2,2,1900-01-01 05:48:00,1900-01-01 18:32:00,1900-01-01 17:35:00,1900-01-01 03:25:00,Waxing Gibbous,93
Talab Data,32.65,74.93,27.2,Patchy rain possible,5.1,76,ENE,1005.0,29.68,1.2,0.05,65,73,29.0,5.0,6.0,9.8,948.0,36.5,32.9,5.9,43.8,58.7,3,5,1900-01-01 06:03:00,1900-01-01 18:59:00,1900-01-01 18:10:00,1900-01-01 03:29:00,Waxing Gibbous,93
Anantnag,33.73,75.15,15.3,Sunny,2.7,307,NW,1011.0,29.86,0.0,0.0,62,13,15.3,6.0,5.0,4.9,894.6,41.1,17.7,3.7,51.2,67.1,3,6,1900-01-01 06:01:00,1900-01-01 19:00:00,1900-01-01 18:12:00,1900-01-01 03:25:00,Waxing Gibbous,93
Baramula,34.21,74.34,22.8,Sunny,4.5,119,ESE,1010.0,29.83,0.0,0.0,45,6,24.5,6.0,6.0,5.1,327.1,82.3,0.5,0.4,6.3,7.8,1,1,1900-01-01 06:03:00,1900-01-01 19:03:00,1900-01-01 18:17:00,1900-01-01 03:27:00,Waxing Gibbous,93
Kulgam,33.65,75.02,15.3,Sunny,2.7,307,NW,1011.0,29.86,0.0,0.0,62,13,15.3,6.0,5.0,4.9,894.6,41.1,17.7,3.7,51.2,67.1,3,6,1900-01-01 06:01:00,1900-01-01 19:00:00,1900-01-01 18:12:00,1900-01-01 03:26:00,Waxing Gibbous,93
Shupiyan,33.72,74.83,15.3,Sunny,2.7,307,NW,1011.0,29.86,0.0,0.0,62,13,15.3,6.0,5.0,4.9,894.6,41.1,17.7,3.7,51.2,67.1,3,6,1900-01-01 06:02:00,1900-01-01 19:01:00,1900-01-01 18:13:00,1900-01-01 03:27:00,Waxing Gibbous,93
Jammu,32.73,74.87,27.2,Patchy rain possible,5.1,76,ENE,1005.0,29.68,1.2,0.05,65,73,29.0,5.0,6.0,9.8,948.0,36.5,32.9,5.9,43.8,58.7,3,5,1900-01-01 06:03:00,1900-01-01 19:00:00,1900-01-01 18:11:00,1900-01-01 03:29:00,Waxing Gibbous,93
Leh,34.17,77.58,7.1,Sunny,3.4,250,WSW,1011.0,29.84,0.0,0.0,27,5,6.3,6.0,3.0,3.8,176.9,84.4,0.1,0.1,4.6,6.8,1,1,1900-01-01 05:51:00,1900-01-01 18:50:00,1900-01-01 18:03:00,1900-01-01 03:14:00,Waxing Gibbous,93
Srinagar,34.09,74.8,20.1,Patchy rain possible,2.5,151,SSE,1011.0,29.87,0.1,0.0,65,82,20.1,6.0,5.0,2.9,741.0,95.8,14.2,8.2,37.3,43.1,2,4,1900-01-01 06:02:00,1900-01-01 19:01:00,1900-01-01 18:14:00,1900-01-01 03:26:00,Waxing Gibbous,93
Doda,33.13,75.57,18.5,Patchy rain possible,4.0,33,NNE,1010.0,29.83,0.1,0.0,70,84,18.5,6.0,4.0,5.6,317.1,93.0,1.1,0.4,8.1,10.7,1,1,1900-01-01 06:00:00,1900-01-01 18:57:00,1900-01-01 18:09:00,1900-01-01 03:25:00,Waxing Gibbous,93
Pulwama,33.88,74.92,20.0,Patchy rain possible,2.2,159,SSE,1012.0,29.87,0.1,0.0,66,87,20.0,6.0,5.0,2.7,741.0,95.8,14.2,8.2,37.3,43.1,2,4,1900-01-01 06:02:00,1900-01-01 19:01:00,1900-01-01 18:13:00,1900-01-01 03:26:00,Waxing Gibbous,93
Ramban,33.25,75.25,21.5,Patchy rain possible,2.2,4,N,1011.0,29.86,0.1,0.0,73,70,21.4,6.0,5.0,2.7,277.0,82.3,0.6,0.4,6.9,8.9,1,1,1900-01-01 06:01:00,1900-01-01 18:59:00,1900-01-01 18:11:00,1900-01-01 03:26:00,Waxing Gibbous,93
Ganderbal,34.23,74.78,20.1,Patchy rain possible,2.5,151,SSE,1011.0,29.87,0.1,0.0,65,82,20.1,6.0,5.0,2.9,741.0,95.8,14.2,8.2,37.3,43.1,2,4,1900-01-01 06:02:00,1900-01-01 19:02:00,1900-01-01 18:15:00,1900-01-01 03:26:00,Waxing Gibbous,93
Udhampur,32.93,75.13,27.2,Patchy rain possible,5.1,76,ENE,1005.0,29.68,1.2,0.05,65,73,29.0,5.0,6.0,9.8,948.0,36.5,32.9,5.9,43.8,58.7,3,5,1900-01-01 06:02:00,1900-01-01 18:59:00,1900-01-01 18:10:00,1900-01-01 03:28:00,Waxing Gibbous,93
Badgam,34.02,74.72,20.1,Patchy rain possible,2.5,151,SSE,1011.0,29.87,0.1,0.0,65,82,20.1,6.0,5.0,2.9,741.0,95.8,14.2,8.2,37.3,43.1,2,4,1900-01-01 06:02:00,1900-01-01 19:02:00,1900-01-01 18:15:00,1900-01-01 03:26:00,Waxing Gibbous,93
Punch,25.82,79.05,32.4,Patchy rain possible,10.7,290,WNW,1006.0,29.69,0.1,0.0,49,72,35.3,6.0,7.0,12.8,243.7,70.1,1.4,2.0,19.7,29.2,2,2,1900-01-01 05:53:00,1900-01-01 18:37:00,1900-01-01 17:39:00,1900-01-01 03:30:00,Waxing Gibbous,93
Kupwara,34.03,74.26,17.8,Patchy light rain with thunder,2.2,233,SW,1011.0,29.87,0.5,0.02,66,81,17.8,6.0,4.0,2.7,454.0,68.7,1.2,2.4,14.3,22.5,1,2,1900-01-01 05:34:00,1900-01-01 18:33:00,1900-01-01 17:47:00,1900-01-01 02:58:00,Waxing Gibbous,93
Samba,32.57,75.12,27.2,Patchy rain possible,5.8,75,ENE,1005.0,29.68,1.2,0.05,65,76,29.1,5.0,6.0,11.2,948.0,36.5,32.9,5.9,43.8,58.7,3,5,1900-01-01 06:02:00,1900-01-01 18:59:00,1900-01-01 18:09:00,1900-01-01 03:29:00,Waxing Gibbous,93
Kathua,32.37,75.52,27.3,Patchy rain possible,3.4,306,NW,1006.0,29.71,0.2,0.01,68,82,29.4,5.0,6.0,4.5,567.4,123.0,3.2,2.1,39.1,44.5,2,4,1900-01-01 06:01:00,1900-01-01 18:57:00,1900-01-01 18:07:00,1900-01-01 03:28:00,Waxing Gibbous,93
Kargil,34.57,76.1,14.2,Partly cloudy,3.6,251,WSW,1011.0,29.84,0.0,0.0,22,32,14.3,6.0,4.0,4.0,237.0,78.0,0.2,0.2,10.3,14.5,1,1,1900-01-01 05:56:00,1900-01-01 18:57:00,1900-01-01 18:10:00,1900-01-01 03:19:00,Waxing Gibbous,93
Kishtwar,33.32,75.77,17.5,Patchy rain possible,2.2,263,W,1012.0,29.88,0.1,0.0,64,88,17.5,6.0,4.0,2.2,280.4,89.4,0.5,0.2,6.4,8.1,1,1,1900-01-01 05:59:00,1900-01-01 18:57:00,1900-01-01 18:09:00,1900-01-01 03:24:00,Waxing Gibbous,93
Daman,20.42,72.85,28.6,Patchy rain possible,9.2,221,SW,1009.0,29.8,0.1,0.0,69,83,31.9,6.0,6.0,11.2,173.6,34.7,0.2,0.3,9.9,17.6,1,1,1900-01-01 06:22:00,1900-01-01 18:57:00,1900-01-01 17:54:00,1900-01-01 04:07:00,Waxing Gibbous,93
Diu,20.7,70.98,27.8,Cloudy,11.0,247,WSW,1008.0,29.77,0.0,0.0,70,70,30.5,6.0,6.0,14.8,178.6,31.8,0.1,0.5,14.4,29.0,1,2,1900-01-01 06:29:00,1900-01-01 19:05:00,1900-01-01 18:02:00,1900-01-01 04:15:00,Waxing Gibbous,93
Bhavnagar,21.77,72.15,30.0,Mist,8.1,220,SW,1008.0,29.77,0.0,0.0,66,25,32.0,3.0,8.0,11.6,193.6,35.4,1.0,1.0,8.9,14.5,1,1,1900-01-01 06:23:00,1900-01-01 19:01:00,1900-01-01 17:59:00,1900-01-01 04:07:00,Waxing Gibbous,93
Udaipur,27.72,75.48,31.1,Sunny,11.0,250,WSW,1006.0,29.7,0.0,0.0,52,4,33.5,6.0,8.0,12.5,195.3,55.1,0.9,0.9,31.6,151.8,2,3,1900-01-01 06:05:00,1900-01-01 18:53:00,1900-01-01 17:57:00,1900-01-01 03:40:00,Waxing Gibbous,93
Vadodara,22.3,73.2,29.9,Cloudy,11.2,239,WSW,1008.0,29.77,0.0,0.0,52,72,31.5,6.0,6.0,13.9,210.3,37.9,2.0,2.3,9.6,16.9,1,1,1900-01-01 06:19:00,1900-01-01 18:57:00,1900-01-01 17:56:00,1900-01-01 04:02:00,Waxing Gibbous,93
Kantha,26.58,80.75,31.0,Mist,9.4,290,WNW,1004.0,29.65,0.0,0.0,66,75,34.8,3.0,8.0,10.7,317.1,88.0,2.7,4.8,30.1,39.5,2,3,1900-01-01 05:45:00,1900-01-01 18:30:00,1900-01-01 17:33:00,1900-01-01 03:21:00,Waxing Gibbous,93
Surendranagar,22.7,71.68,31.5,Sunny,12.5,245,WSW,1007.0,29.74,0.0,0.0,44,24,32.9,6.0,8.0,14.3,195.3,35.8,0.9,1.2,9.7,15.8,1,1,1900-01-01 06:24:00,1900-01-01 19:04:00,1900-01-01 18:03:00,1900-01-01 04:07:00,Waxing Gibbous,93
Anand,22.57,72.93,30.3,Partly cloudy,10.3,236,WSW,1008.0,29.77,0.0,0.0,52,39,32.3,6.0,8.0,11.9,203.6,34.7,1.7,1.7,10.1,18.5,1,1,1900-01-01 06:20:00,1900-01-01 18:59:00,1900-01-01 17:58:00,1900-01-01 04:02:00,Waxing Gibbous,93
Amreli,21.62,71.23,30.2,Partly cloudy,13.9,244,WSW,1008.0,29.76,0.0,0.0,50,36,31.8,6.0,8.0,15.9,188.6,32.9,1.2,1.6,13.0,20.8,1,2,1900-01-01 06:27:00,1900-01-01 19:05:00,1900-01-01 18:03:00,1900-01-01 04:12:00,Waxing Gibbous,93
Dohad,22.83,74.27,27.3,Cloudy,13.0,249,WSW,1009.0,29.8,0.0,0.0,63,68,29.1,6.0,6.0,15.0,217.0,31.1,2.4,2.6,8.9,12.5,1,1,1900-01-01 06:14:00,1900-01-01 18:53:00,1900-01-01 17:53:00,1900-01-01 03:56:00,Waxing Gibbous,93
Rajkot,22.3,70.78,29.0,Partly cloudy,9.4,270,W,1008.0,29.77,0.0,0.0,75,75,29.9,3.0,8.0,17.4,183.6,33.6,0.6,0.7,13.9,27.3,1,2,1900-01-01 06:28:00,1900-01-01 19:07:00,1900-01-01 18:06:00,1900-01-01 04:12:00,Waxing Gibbous,93
Mahesana,23.6,72.4,29.6,Cloudy,10.5,240,WSW,1007.0,29.75,0.0,0.0,54,66,31.4,6.0,6.0,12.1,208.6,31.8,2.5,2.3,10.0,16.6,1,1,1900-01-01 06:21:00,1900-01-01 19:02:00,1900-01-01 18:02:00,1900-01-01 04:02:00,Waxing Gibbous,93
Patan,23.83,72.12,28.0,Cloudy,12.3,233,SW,1007.0,29.75,0.0,0.0,61,85,29.9,6.0,6.0,15.4,190.3,31.8,1.9,2.8,16.1,27.2,2,2,1900-01-01 06:22:00,1900-01-01 19:03:00,1900-01-01 18:03:00,1900-01-01 04:03:00,Waxing Gibbous,93
Bharuch,21.7,72.97,29.7,Partly cloudy,10.3,242,WSW,1009.0,29.78,0.0,0.0,56,46,31.9,6.0,7.0,11.9,186.9,37.6,0.7,0.7,9.3,17.4,1,1,1900-01-01 06:20:00,1900-01-01 18:58:00,1900-01-01 17:56:00,1900-01-01 04:04:00,Waxing Gibbous,93
Somnath,20.88,70.37,27.7,Cloudy,11.0,247,WSW,1008.0,29.77,0.0,0.0,70,71,30.4,6.0,6.0,15.0,178.6,31.8,0.1,0.5,14.4,29.0,1,2,1900-01-01 06:31:00,1900-01-01 19:08:00,1900-01-01 18:05:00,1900-01-01 04:17:00,Waxing Gibbous,93
Junagadh,21.52,70.47,29.4,Partly cloudy,14.3,239,WSW,1008.0,29.76,0.0,0.0,57,46,31.5,6.0,7.0,16.6,188.6,31.1,0.7,0.6,13.7,28.2,1,2,1900-01-01 06:30:00,1900-01-01 19:08:00,1900-01-01 18:06:00,1900-01-01 04:15:00,Waxing Gibbous,93
Dwarka,22.24,68.97,27.9,Partly cloudy,16.8,236,WSW,1007.0,29.74,0.0,0.0,71,52,30.9,6.0,7.0,21.9,183.6,31.5,0.1,0.5,17.1,52.7,2,2,1900-01-01 06:36:00,1900-01-01 19:14:00,1900-01-01 18:13:00,1900-01-01 04:20:00,Waxing Gibbous,93
Navsari,20.85,72.92,28.4,Patchy rain possible,9.6,220,SW,1009.0,29.8,0.1,0.0,70,84,31.6,6.0,6.0,12.1,178.6,32.5,0.2,0.3,10.0,16.8,1,1,1900-01-01 06:21:00,1900-01-01 18:57:00,1900-01-01 17:54:00,1900-01-01 04:06:00,Waxing Gibbous,93
Surat,20.97,72.9,28.4,Patchy rain possible,10.1,221,SW,1009.0,29.79,0.1,0.0,69,89,31.5,6.0,6.0,12.5,178.6,32.5,0.2,0.3,10.0,16.8,1,1,1900-01-01 06:21:00,1900-01-01 18:57:00,1900-01-01 17:55:00,1900-01-01 04:06:00,Waxing Gibbous,93
Jamnagar,22.47,70.07,29.2,Sunny,16.3,242,WSW,1007.0,29.74,0.0,0.0,59,19,31.6,6.0,7.0,19.9,190.3,36.8,3.5,7.4,17.2,42.6,2,2,1900-01-01 06:31:00,1900-01-01 19:10:00,1900-01-01 18:09:00,1900-01-01 04:15:00,Waxing Gibbous,93
Porbandar,21.63,69.6,27.7,Sunny,14.1,241,WSW,1008.0,29.75,0.0,0.0,70,13,30.2,6.0,7.0,18.6,185.3,30.0,0.4,0.5,16.0,40.7,2,2,1900-01-01 06:34:00,1900-01-01 19:11:00,1900-01-01 18:09:00,1900-01-01 04:18:00,Waxing Gibbous,93
Valsad,20.63,72.93,28.6,Patchy rain possible,9.2,221,SW,1009.0,29.8,0.1,0.0,69,83,31.9,6.0,6.0,11.2,173.6,34.7,0.2,0.3,9.9,17.6,1,1,1900-01-01 06:21:00,1900-01-01 18:57:00,1900-01-01 17:54:00,1900-01-01 04:07:00,Waxing Gibbous,93
Gandhinagar,23.22,72.68,30.0,Partly cloudy,15.0,240,WSW,1008.0,29.77,0.0,0.0,70,50,31.9,2.0,8.0,10.5,217.0,29.3,4.3,8.9,8.4,14.2,1,1,1900-01-01 06:20:00,1900-01-01 19:00:00,1900-01-01 18:00:00,1900-01-01 04:02:00,Waxing Gibbous,93
Morbi,22.82,70.83,29.0,Partly cloudy,9.4,270,W,1008.0,29.77,0.0,0.0,75,75,30.3,3.0,7.0,19.0,195.3,39.7,3.9,9.2,18.2,37.6,2,2,1900-01-01 06:28:00,1900-01-01 19:07:00,1900-01-01 18:07:00,1900-01-01 04:11:00,Waxing Gibbous,93
Kheda,22.75,72.68,30.0,Partly cloudy,15.0,240,WSW,1008.0,29.77,0.0,0.0,70,50,32.0,2.0,8.0,10.7,212.0,23.3,9.3,32.0,12.1,21.3,1,2,1900-01-01 06:20:00,1900-01-01 19:00:00,1900-01-01 17:59:00,1900-01-01 04:03:00,Waxing Gibbous,93
Dadra,20.32,72.97,28.3,Patchy rain possible,8.7,219,SW,1009.0,29.8,0.1,0.0,71,80,31.6,6.0,6.0,11.0,173.6,34.7,0.2,0.3,9.9,17.6,1,1,1900-01-01 06:21:00,1900-01-01 18:57:00,1900-01-01 17:53:00,1900-01-01 04:07:00,Waxing Gibbous,93
Krishna,16.17,81.13,33.0,Partly cloudy,8.1,300,WNW,1007.0,29.74,0.2,0.01,63,50,40.9,3.0,7.0,9.8,333.8,73.0,4.0,5.7,22.8,27.5,2,2,1900-01-01 05:52:00,1900-01-01 18:21:00,1900-01-01 17:12:00,1900-01-01 03:42:00,Waxing Gibbous,93
East Godavari,16.93,82.22,33.8,Sunny,9.6,310,NW,1006.0,29.71,0.0,0.0,44,6,36.8,6.0,8.0,11.2,377.2,105.9,8.4,23.4,60.0,65.2,3,8,1900-01-01 05:47:00,1900-01-01 18:17:00,1900-01-01 17:09:00,1900-01-01 03:36:00,Waxing Gibbous,93
Visakhapatnam,17.7,83.3,32.0,Partly cloudy,2.2,175,S,1006.0,29.71,0.0,0.0,54,27,35.9,6.0,8.0,2.0,280.4,100.1,1.7,5.4,33.7,38.8,2,3,1900-01-01 05:42:00,1900-01-01 18:13:00,1900-01-01 17:06:00,1900-01-01 03:30:00,Waxing Gibbous,93
Nellore,14.43,79.97,35.3,Patchy rain possible,15.4,306,NW,1007.0,29.73,0.1,0.0,40,88,38.7,6.0,8.0,18.8,220.3,38.3,4.7,6.4,8.2,10.8,1,1,1900-01-01 05:58:00,1900-01-01 18:24:00,1900-01-01 17:14:00,1900-01-01 03:50:00,Waxing Gibbous,93
Chittoor,13.2,79.12,32.2,Partly cloudy,10.5,302,WNW,1009.0,29.78,0.0,0.0,48,45,34.7,6.0,8.0,12.1,201.9,23.6,1.8,0.7,1.3,2.7,1,1,1900-01-01 06:02:00,1900-01-01 18:27:00,1900-01-01 17:15:00,1900-01-01 03:56:00,Waxing Gibbous,93
Srikakulam,18.3,83.9,32.7,Sunny,8.5,331,NNW,1006.0,29.7,0.0,0.0,51,6,36.5,6.0,8.0,10.1,267.0,78.0,1.3,1.3,23.3,27.3,2,2,1900-01-01 05:40:00,1900-01-01 18:11:00,1900-01-01 17:04:00,1900-01-01 03:26:00,Waxing Gibbous,93
Kurnool,15.83,78.05,30.9,Partly cloudy,11.2,301,WNW,1009.0,29.79,0.0,0.0,50,34,33.0,6.0,8.0,13.0,203.6,32.5,1.5,0.5,2.7,5.1,1,1,1900-01-01 06:04:00,1900-01-01 18:33:00,1900-01-01 17:24:00,1900-01-01 03:55:00,Waxing Gibbous,93
Guntur,16.3,80.45,33.0,Partly cloudy,8.1,300,WNW,1007.0,29.74,0.0,0.0,63,50,37.5,3.0,8.0,8.9,257.0,74.4,2.3,5.9,16.6,19.5,2,2,1900-01-01 05:55:00,1900-01-01 18:24:00,1900-01-01 17:15:00,1900-01-01 03:44:00,Waxing Gibbous,93
Vizianagaram,18.12,83.42,33.3,Sunny,3.4,334,NNW,1006.0,29.7,0.0,0.0,46,14,36.3,6.0,8.0,3.8,263.7,89.4,1.5,3.5,33.6,38.0,2,3,1900-01-01 05:42:00,1900-01-01 18:13:00,1900-01-01 17:06:00,1900-01-01 03:28:00,Waxing Gibbous,93
Anantapur,14.68,77.6,31.0,Sunny,11.2,304,NW,1009.0,29.8,0.0,0.0,45,8,32.2,6.0,8.0,13.0,183.6,30.4,1.7,1.7,1.6,3.3,1,1,1900-01-01 06:07:00,1900-01-01 18:34:00,1900-01-01 17:24:00,1900-01-01 03:59:00,Waxing Gibbous,93
West Godavari,16.7,81.1,33.0,Partly cloudy,8.1,300,WNW,1007.0,29.74,0.0,0.0,63,50,38.1,3.0,8.0,10.5,340.5,86.6,2.1,5.3,36.5,42.1,2,4,1900-01-01 05:52:00,1900-01-01 18:21:00,1900-01-01 17:13:00,1900-01-01 03:41:00,Waxing Gibbous,93
Kadapa,14.47,78.82,32.0,Partly cloudy,16.1,320,NW,1009.0,29.8,0.0,0.0,49,25,33.7,3.0,8.0,15.0,198.6,28.3,3.9,5.0,4.0,6.0,1,1,1900-01-01 06:02:00,1900-01-01 18:29:00,1900-01-01 17:18:00,1900-01-01 03:55:00,Waxing Gibbous,93
Jamtara,23.95,86.8,33.0,Sunny,6.9,325,NW,1005.0,29.67,0.0,0.0,47,15,36.2,6.0,8.0,8.1,247.0,78.0,2.6,10.0,42.9,53.6,3,5,1900-01-01 05:23:00,1900-01-01 18:04:00,1900-01-01 17:03:00,1900-01-01 03:01:00,Waxing Gibbous,93
Saraikela,22.72,85.95,34.0,Mist,4.3,340,NNW,1005.0,29.68,0.0,0.0,53,25,39.8,2.0,8.0,4.7,270.4,79.4,3.0,5.8,42.6,51.3,3,5,1900-01-01 05:28:00,1900-01-01 18:07:00,1900-01-01 17:04:00,1900-01-01 03:08:00,Waxing Gibbous,93
Simdega,22.62,84.52,32.0,Mist,4.3,270,W,1007.0,29.74,0.0,0.0,67,50,34.9,2.0,8.0,6.7,220.3,66.5,0.6,3.0,13.8,16.8,1,2,1900-01-01 05:34:00,1900-01-01 18:12:00,1900-01-01 17:10:00,1900-01-01 03:14:00,Waxing Gibbous,93
Latehar,23.75,84.5,30.9,Sunny,7.6,279,W,1006.0,29.71,0.0,0.0,56,15,33.9,6.0,8.0,8.7,263.7,36.1,19.4,34.3,37.8,48.1,2,4,1900-01-01 05:33:00,1900-01-01 18:13:00,1900-01-01 17:12:00,1900-01-01 03:11:00,Waxing Gibbous,93
Khunti,23.08,85.28,30.0,Mist,10.5,350,N,1010.0,29.83,0.0,0.0,62,50,31.7,2.0,7.0,4.9,223.6,58.7,6.9,9.8,16.2,21.5,2,2,1900-01-01 05:30:00,1900-01-01 18:09:00,1900-01-01 17:07:00,1900-01-01 03:10:00,Waxing Gibbous,93
Hazaribagh,23.98,85.35,28.9,Patchy rain possible,6.3,299,WNW,1007.0,29.72,0.1,0.0,54,84,30.4,6.0,6.0,7.4,220.3,67.2,4.7,11.3,24.4,32.2,2,3,1900-01-01 05:29:00,1900-01-01 18:10:00,1900-01-01 17:09:00,1900-01-01 03:07:00,Waxing Gibbous,93
Chatra,24.22,84.87,32.0,Mist,9.4,270,W,1006.0,29.71,0.0,0.0,67,50,36.6,1.0,8.0,8.5,250.3,51.5,4.5,6.9,27.0,36.9,2,3,1900-01-01 05:31:00,1900-01-01 18:12:00,1900-01-01 17:11:00,1900-01-01 03:09:00,Waxing Gibbous,93
Kodarma,24.43,85.52,30.6,Sunny,7.4,288,WNW,1006.0,29.7,0.0,0.0,54,12,33.0,6.0,8.0,8.5,273.7,68.7,3.5,5.5,28.0,34.4,2,3,1900-01-01 05:28:00,1900-01-01 18:10:00,1900-01-01 17:09:00,1900-01-01 03:05:00,Waxing Gibbous,93
Giridih,24.18,86.3,31.3,Sunny,6.7,309,NW,1006.0,29.69,0.0,0.0,52,16,33.9,6.0,8.0,7.8,240.3,77.3,6.8,14.8,47.4,57.4,3,5,1900-01-01 05:25:00,1900-01-01 18:06:00,1900-01-01 17:05:00,1900-01-01 03:03:00,Waxing Gibbous,93
Lohardaga,23.43,84.68,28.0,Sunny,2.2,342,NNW,1007.0,29.74,0.0,0.0,54,22,29.2,6.0,7.0,2.5,205.3,57.9,4.2,8.5,16.4,23.0,2,2,1900-01-01 05:32:00,1900-01-01 18:12:00,1900-01-01 17:11:00,1900-01-01 03:11:00,Waxing Gibbous,93
Sahibganj,25.25,87.65,32.2,Sunny,6.0,282,WNW,1005.0,29.66,0.0,0.0,56,17,36.5,6.0,8.0,7.6,467.3,111.6,2.6,9.2,64.6,76.4,3,8,1900-01-01 05:19:00,1900-01-01 18:02:00,1900-01-01 17:02:00,1900-01-01 02:54:00,Waxing Gibbous,93
Godda,24.83,87.22,32.9,Sunny,6.5,306,NW,1005.0,29.67,0.0,0.0,52,12,37.1,6.0,8.0,7.4,380.5,101.6,2.9,6.7,46.5,58.7,3,5,1900-01-01 05:21:00,1900-01-01 18:03:00,1900-01-01 17:03:00,1900-01-01 02:57:00,Waxing Gibbous,93
Dhanbad,23.8,86.45,32.5,Sunny,5.4,326,NNW,1005.0,29.68,0.0,0.0,47,14,35.1,6.0,8.0,6.3,267.0,69.4,11.0,23.6,66.1,78.1,4,9,1900-01-01 05:25:00,1900-01-01 18:05:00,1900-01-01 17:04:00,1900-01-01 03:03:00,Waxing Gibbous,93
Dumka,24.27,87.25,32.8,Sunny,6.7,335,NNW,1005.0,29.67,0.0,0.0,51,14,36.8,6.0,8.0,7.8,240.3,78.7,1.0,1.7,20.5,30.1,2,2,1900-01-01 05:21:00,1900-01-01 18:03:00,1900-01-01 17:02:00,1900-01-01 02:59:00,Waxing Gibbous,93
Bokaro,23.78,85.97,31.6,Sunny,5.6,324,NW,1006.0,29.69,0.0,0.0,51,13,34.4,6.0,8.0,6.5,220.3,67.2,8.7,15.7,27.4,35.2,2,3,1900-01-01 05:27:00,1900-01-01 18:07:00,1900-01-01 17:06:00,1900-01-01 03:05:00,Waxing Gibbous,93
Deoghar,24.48,86.7,31.5,Sunny,6.7,316,NW,1005.0,29.68,0.0,0.0,52,13,34.4,6.0,8.0,7.8,260.4,80.8,1.5,4.8,34.7,44.8,2,3,1900-01-01 05:23:00,1900-01-01 18:05:00,1900-01-01 17:04:00,1900-01-01 03:00:00,Waxing Gibbous,93
Gumla,23.05,84.55,28.9,Sunny,2.2,33,NNE,1007.0,29.73,0.0,0.0,53,20,30.3,6.0,7.0,2.7,207.0,60.8,2.6,6.4,13.4,18.1,1,2,1900-01-01 05:33:00,1900-01-01 18:12:00,1900-01-01 17:10:00,1900-01-01 03:13:00,Waxing Gibbous,93
Ramgarh,23.63,85.52,30.0,Mist,10.5,350,N,1010.0,29.83,0.0,0.0,62,50,31.7,2.0,7.0,4.9,223.6,58.7,6.9,9.8,16.2,21.5,2,2,1900-01-01 05:29:00,1900-01-01 18:09:00,1900-01-01 17:08:00,1900-01-01 03:07:00,Waxing Gibbous,93
Garhwa,24.73,83.22,28.0,Sunny,9.2,279,W,1007.0,29.72,0.0,0.0,64,11,30.2,6.0,7.0,11.6,260.4,60.8,4.9,13.0,21.3,32.6,2,2,1900-01-01 05:37:00,1900-01-01 18:19:00,1900-01-01 17:19:00,1900-01-01 03:15:00,Waxing Gibbous,93
Ranchi,23.35,85.33,30.0,Mist,10.5,350,N,1010.0,29.83,0.0,0.0,62,50,31.7,2.0,7.0,5.4,223.6,58.7,6.9,9.8,16.2,21.5,2,2,1900-01-01 05:30:00,1900-01-01 18:10:00,1900-01-01 17:08:00,1900-01-01 03:09:00,Waxing Gibbous,93
Arwal,25.25,84.68,34.0,Mist,8.1,290,WNW,1004.0,29.65,0.0,0.0,71,50,39.6,3.0,8.0,8.3,333.8,70.1,4.4,5.7,24.7,27.8,2,3,1900-01-01 05:31:00,1900-01-01 18:14:00,1900-01-01 17:14:00,1900-01-01 03:07:00,Waxing Gibbous,93
Bhagalpur,25.25,87.0,33.2,Sunny,7.2,284,WNW,1004.0,29.66,0.0,0.0,52,16,37.9,6.0,8.0,8.3,460.6,113.0,3.8,10.5,61.1,72.2,3,8,1900-01-01 05:22:00,1900-01-01 18:04:00,1900-01-01 17:05:00,1900-01-01 02:57:00,Waxing Gibbous,93
Purnia,25.78,87.47,32.6,Sunny,4.7,261,W,1004.0,29.65,0.0,0.0,55,11,37.4,6.0,8.0,5.6,600.8,123.0,2.4,10.3,94.3,108.4,4,10,1900-01-01 05:19:00,1900-01-01 18:03:00,1900-01-01 17:04:00,1900-01-01 02:54:00,Waxing Gibbous,93
Kishanganj,26.12,87.93,32.8,Sunny,5.4,272,W,1004.0,29.65,0.0,0.0,57,20,38.2,6.0,8.0,6.3,514.0,113.0,2.3,7.9,71.9,81.0,4,10,1900-01-01 05:17:00,1900-01-01 18:02:00,1900-01-01 17:03:00,1900-01-01 02:51:00,Waxing Gibbous,93
Gaya,24.78,85.0,32.0,Mist,9.4,270,W,1006.0,29.71,0.0,0.0,67,50,34.8,1.0,8.0,9.6,350.5,65.8,5.1,5.9,26.4,32.4,2,3,1900-01-01 05:30:00,1900-01-01 18:12:00,1900-01-01 17:12:00,1900-01-01 03:07:00,Waxing Gibbous,93
Banka,24.88,86.92,32.9,Sunny,6.5,306,NW,1005.0,29.67,0.0,0.0,52,12,37.1,6.0,8.0,7.4,380.5,101.6,2.9,6.7,46.5,58.7,3,5,1900-01-01 05:22:00,1900-01-01 18:05:00,1900-01-01 17:04:00,1900-01-01 02:58:00,Waxing Gibbous,93
Aurangabad,19.88,75.33,26.6,Partly cloudy,10.7,290,WNW,1010.0,29.83,0.0,0.0,62,50,28.1,6.0,7.0,12.3,188.6,22.5,3.5,6.7,7.2,8.9,1,1,1900-01-01 06:12:00,1900-01-01 18:47:00,1900-01-01 17:43:00,1900-01-01 03:58:00,Waxing Gibbous,93
Nawada,24.88,85.53,33.2,Sunny,8.3,263,W,1005.0,29.67,0.0,0.0,50,20,37.2,6.0,8.0,9.6,363.8,80.8,4.4,5.7,27.1,31.1,2,3,1900-01-01 05:28:00,1900-01-01 18:10:00,1900-01-01 17:10:00,1900-01-01 03:04:00,Waxing Gibbous,93
Araria,26.15,87.52,32.1,Sunny,2.9,253,WSW,1004.0,29.65,0.0,0.0,60,15,37.5,6.0,8.0,3.4,397.2,105.9,1.2,3.1,49.0,55.1,3,6,1900-01-01 05:19:00,1900-01-01 18:03:00,1900-01-01 17:04:00,1900-01-01 02:53:00,Waxing Gibbous,93
Muzaffarpur,26.12,85.4,32.5,Sunny,5.6,257,WSW,1004.0,29.65,0.0,0.0,56,17,37.3,6.0,8.0,6.5,383.9,74.4,6.6,5.7,24.4,30.0,2,3,1900-01-01 05:27:00,1900-01-01 18:12:00,1900-01-01 17:13:00,1900-01-01 03:02:00,Waxing Gibbous,93
Saran,24.48,86.3,31.3,Sunny,6.7,309,NW,1006.0,29.69,0.0,0.0,52,16,33.9,6.0,8.0,7.8,240.3,77.3,6.8,14.8,47.4,57.4,3,5,1900-01-01 05:25:00,1900-01-01 18:07:00,1900-01-01 17:06:00,1900-01-01 03:02:00,Waxing Gibbous,93
Sheikhpura,34.33,74.23,22.8,Sunny,4.5,119,ESE,1010.0,29.83,0.0,0.0,45,6,24.5,6.0,6.0,5.1,327.1,82.3,0.5,0.4,6.3,7.8,1,1,1900-01-01 06:04:00,1900-01-01 19:04:00,1900-01-01 18:17:00,1900-01-01 03:28:00,Waxing Gibbous,93
Saharsa,25.88,86.6,32.9,Patchy rain possible,5.6,275,W,1004.0,29.66,0.1,0.0,54,89,37.6,6.0,7.0,6.9,480.7,124.5,3.4,8.9,64.5,75.3,3,8,1900-01-01 05:23:00,1900-01-01 18:07:00,1900-01-01 17:08:00,1900-01-01 02:57:00,Waxing Gibbous,93
Gopalganj,26.47,84.43,31.9,Patchy rain possible,6.5,261,W,1004.0,29.65,0.6,0.02,59,76,36.8,5.0,7.0,10.7,423.9,60.1,5.7,5.8,17.8,21.6,2,2,1900-01-01 05:31:00,1900-01-01 18:16:00,1900-01-01 17:18:00,1900-01-01 03:05:00,Waxing Gibbous,93
Siwan,26.22,84.37,32.7,Patchy rain possible,8.1,258,WSW,1004.0,29.66,0.1,0.0,56,83,37.7,6.0,7.0,10.1,407.2,69.4,5.2,8.2,19.0,22.8,2,2,1900-01-01 05:31:00,1900-01-01 18:16:00,1900-01-01 17:18:00,1900-01-01 03:06:00,Waxing Gibbous,93
Sheohar,26.52,85.3,32.3,Patchy rain possible,3.4,256,WSW,1004.0,29.65,0.1,0.0,58,81,37.2,6.0,7.0,4.0,640.9,58.7,9.3,9.1,55.1,63.7,3,7,1900-01-01 05:27:00,1900-01-01 18:12:00,1900-01-01 17:14:00,1900-01-01 03:01:00,Waxing Gibbous,93
Buxar,25.58,83.98,32.5,Sunny,9.6,262,W,1005.0,29.67,0.0,0.0,53,18,36.6,6.0,8.0,11.2,330.5,101.6,2.5,7.5,39.7,48.2,2,4,1900-01-01 05:33:00,1900-01-01 18:17:00,1900-01-01 17:18:00,1900-01-01 03:09:00,Waxing Gibbous,93
Madhubani,26.37,86.08,32.4,Patchy rain possible,4.9,265,W,1004.0,29.66,0.4,0.02,54,86,36.6,5.0,7.0,7.2,567.4,57.2,13.5,16.9,52.6,63.4,3,6,1900-01-01 05:24:00,1900-01-01 18:09:00,1900-01-01 17:11:00,1900-01-01 02:58:00,Waxing Gibbous,93
Supaul,26.12,86.6,32.9,Patchy rain possible,5.6,275,W,1004.0,29.66,0.1,0.0,54,89,37.6,6.0,7.0,6.9,480.7,124.5,3.4,8.9,64.5,75.3,3,8,1900-01-01 05:22:00,1900-01-01 18:07:00,1900-01-01 17:08:00,1900-01-01 02:57:00,Waxing Gibbous,93
Patna,25.6,85.12,34.0,Mist,8.1,290,WNW,1004.0,29.65,0.0,0.0,71,50,39.2,3.0,8.0,8.7,337.1,64.4,5.8,6.0,18.9,21.8,2,2,1900-01-01 05:29:00,1900-01-01 18:12:00,1900-01-01 17:13:00,1900-01-01 03:04:00,Waxing Gibbous,93
Bhojpur,21.65,84.4,32.0,Mist,4.3,270,W,1007.0,29.74,0.0,0.0,67,50,34.7,2.0,8.0,4.9,310.4,98.7,2.6,14.2,65.7,74.5,4,9,1900-01-01 05:35:00,1900-01-01 18:12:00,1900-01-01 17:08:00,1900-01-01 03:17:00,Waxing Gibbous,93
Darbhanga,26.17,85.9,32.4,Patchy rain possible,5.4,261,W,1004.0,29.66,0.2,0.01,56,81,36.9,5.0,7.0,7.2,474.0,62.9,13.2,17.9,39.6,47.5,2,4,1900-01-01 05:25:00,1900-01-01 18:10:00,1900-01-01 17:11:00,1900-01-01 03:00:00,Waxing Gibbous,93
Samastipur,25.85,85.78,32.8,Sunny,6.7,255,WSW,1004.0,29.66,0.0,0.0,54,18,37.4,6.0,8.0,7.8,427.3,69.4,7.7,9.7,29.4,35.8,2,3,1900-01-01 05:26:00,1900-01-01 18:10:00,1900-01-01 17:11:00,1900-01-01 03:01:00,Waxing Gibbous,93
Bhabua,25.05,83.62,32.2,Sunny,9.4,284,WNW,1005.0,29.69,0.0,0.0,52,15,35.8,6.0,8.0,10.7,417.2,44.7,5.0,3.7,28.7,37.5,2,3,1900-01-01 05:35:00,1900-01-01 18:18:00,1900-01-01 17:18:00,1900-01-01 03:12:00,Waxing Gibbous,93
Khagaria,25.5,86.48,32.9,Sunny,7.4,270,W,1005.0,29.66,0.0,0.0,52,10,37.2,6.0,8.0,8.5,460.6,105.9,6.9,15.5,53.3,63.0,3,6,1900-01-01 05:23:00,1900-01-01 18:07:00,1900-01-01 17:07:00,1900-01-01 02:59:00,Waxing Gibbous,93
Munger,25.38,86.47,33.1,Sunny,7.4,270,W,1005.0,29.66,0.0,0.0,52,10,37.5,6.0,8.0,8.5,460.6,105.9,6.9,15.5,53.3,63.0,3,6,1900-01-01 05:24:00,1900-01-01 18:07:00,1900-01-01 17:07:00,1900-01-01 02:59:00,Waxing Gibbous,93
Sitamarhi,26.6,85.48,32.3,Patchy rain possible,3.4,256,WSW,1004.0,29.65,0.1,0.0,58,81,37.2,6.0,7.0,4.0,640.9,58.7,9.3,9.1,55.1,63.7,3,7,1900-01-01 05:26:00,1900-01-01 18:12:00,1900-01-01 17:14:00,1900-01-01 03:00:00,Waxing Gibbous,93
Lakhisarai,25.18,86.08,33.2,Sunny,7.6,265,W,1005.0,29.66,0.0,0.0,52,13,37.6,6.0,8.0,8.7,460.6,80.8,7.1,12.2,40.7,48.4,3,4,1900-01-01 05:25:00,1900-01-01 18:08:00,1900-01-01 17:08:00,1900-01-01 03:01:00,Waxing Gibbous,93
Jamui,24.92,86.22,32.5,Sunny,8.1,281,WNW,1005.0,29.68,0.0,0.0,53,11,36.7,6.0,8.0,9.2,377.2,86.6,3.0,4.3,38.6,48.3,2,4,1900-01-01 05:25:00,1900-01-01 18:07:00,1900-01-01 17:07:00,1900-01-01 03:01:00,Waxing Gibbous,93
Begusarai,25.42,86.13,33.2,Sunny,7.6,265,W,1005.0,29.66,0.0,0.0,52,12,37.6,6.0,8.0,8.7,460.6,80.8,7.1,12.2,40.7,48.4,3,4,1900-01-01 05:25:00,1900-01-01 18:08:00,1900-01-01 17:09:00,1900-01-01 03:01:00,Waxing Gibbous,93
Katihar,25.53,87.58,33.0,Sunny,5.4,273,W,1004.0,29.66,0.0,0.0,54,14,37.9,6.0,8.0,6.3,540.7,124.5,2.6,9.1,83.0,95.8,4,10,1900-01-01 05:19:00,1900-01-01 18:02:00,1900-01-01 17:03:00,1900-01-01 02:54:00,Waxing Gibbous,93
Gurgaon,28.47,77.03,31.0,Mist,6.9,270,W,1006.0,29.71,0.0,0.0,63,0,31.6,3.0,8.0,11.2,327.1,78.7,5.7,8.2,28.6,115.8,2,3,1900-01-01 05:58:00,1900-01-01 18:47:00,1900-01-01 17:53:00,1900-01-01 03:32:00,Waxing Gibbous,93
Yamunanagar,30.1,77.28,30.5,Sunny,4.0,318,NW,1005.0,29.67,0.0,0.0,62,10,34.4,6.0,8.0,4.7,640.9,147.3,10.5,57.7,153.3,180.4,5,10,1900-01-01 05:56:00,1900-01-01 18:48:00,1900-01-01 17:55:00,1900-01-01 03:26:00,Waxing Gibbous,93
Palwal,28.15,77.33,33.0,Sunny,8.5,295,WNW,1005.0,29.67,0.0,0.0,46,9,35.8,6.0,8.0,9.8,270.4,75.8,3.5,1.7,23.8,101.2,2,2,1900-01-01 05:57:00,1900-01-01 18:46:00,1900-01-01 17:51:00,1900-01-01 03:31:00,Waxing Gibbous,93
Jhajjar,28.62,76.65,31.0,Mist,6.9,270,W,1006.0,29.71,0.0,0.0,63,0,31.7,3.0,8.0,10.7,253.7,71.5,2.2,2.0,25.4,114.6,2,3,1900-01-01 06:00:00,1900-01-01 18:49:00,1900-01-01 17:55:00,1900-01-01 03:33:00,Waxing Gibbous,93
Bhiwani,28.78,76.13,34.0,Sunny,9.2,274,W,1005.0,29.67,0.0,0.0,42,6,36.5,6.0,8.0,10.5,207.0,68.0,1.4,2.3,34.2,164.7,2,3,1900-01-01 06:02:00,1900-01-01 18:51:00,1900-01-01 17:57:00,1900-01-01 03:35:00,Waxing Gibbous,93
Kaithal,29.8,76.38,33.7,Sunny,7.4,303,WNW,1005.0,29.67,0.0,0.0,45,6,36.7,6.0,8.0,8.5,253.7,70.1,2.2,3.9,34.4,139.3,2,3,1900-01-01 06:00:00,1900-01-01 18:51:00,1900-01-01 17:58:00,1900-01-01 03:31:00,Waxing Gibbous,93
Sonipat,28.98,77.02,31.0,Mist,6.9,270,W,1006.0,29.71,0.0,0.0,63,0,32.3,3.0,8.0,10.7,263.7,73.7,2.4,2.3,25.5,106.2,2,3,1900-01-01 05:58:00,1900-01-01 18:48:00,1900-01-01 17:54:00,1900-01-01 03:30:00,Waxing Gibbous,93
Karnal,29.68,76.98,32.5,Sunny,6.7,306,NW,1005.0,29.67,0.0,0.0,52,8,36.3,6.0,8.0,7.8,587.5,98.7,6.4,4.5,66.1,128.5,4,9,1900-01-01 05:57:00,1900-01-01 18:48:00,1900-01-01 17:55:00,1900-01-01 03:29:00,Waxing Gibbous,93
Jind,29.32,76.32,34.3,Sunny,8.5,287,WNW,1005.0,29.67,0.0,0.0,41,6,37.0,6.0,8.0,9.8,230.3,68.7,2.0,3.4,33.9,148.5,2,3,1900-01-01 06:00:00,1900-01-01 18:51:00,1900-01-01 17:57:00,1900-01-01 03:32:00,Waxing Gibbous,93
Panipat,29.39,76.97,33.1,Sunny,8.9,302,WNW,1005.0,29.67,0.0,0.0,47,6,36.2,6.0,8.0,10.3,277.0,73.0,3.6,2.8,27.1,104.8,2,3,1900-01-01 05:58:00,1900-01-01 18:48:00,1900-01-01 17:55:00,1900-01-01 03:30:00,Waxing Gibbous,93
Mahendragarh,28.28,76.15,33.2,Sunny,8.3,299,WNW,1005.0,29.68,0.0,0.0,43,8,35.5,6.0,8.0,9.6,233.7,71.5,1.8,1.4,27.7,134.9,2,3,1900-01-01 06:02:00,1900-01-01 18:50:00,1900-01-01 17:56:00,1900-01-01 03:36:00,Waxing Gibbous,93
Fatehabad,29.52,75.45,35.1,Sunny,8.7,259,W,1004.0,29.66,0.0,0.0,39,5,37.7,6.0,9.0,10.1,203.6,60.1,1.6,3.6,33.4,151.2,2,3,1900-01-01 06:04:00,1900-01-01 18:54:00,1900-01-01 18:01:00,1900-01-01 03:36:00,Waxing Gibbous,93
Faridabad,28.43,77.32,31.0,Mist,6.9,270,W,1006.0,29.71,0.0,0.0,63,0,31.5,3.0,8.0,10.7,600.8,75.1,18.7,32.4,41.2,128.1,3,4,1900-01-01 05:57:00,1900-01-01 18:46:00,1900-01-01 17:51:00,1900-01-01 03:30:00,Waxing Gibbous,93
Sirsa,29.53,75.02,35.1,Sunny,9.6,248,WSW,1004.0,29.65,0.0,0.0,39,5,37.7,6.0,9.0,11.2,201.9,58.7,2.1,5.3,32.6,145.7,2,3,1900-01-01 06:05:00,1900-01-01 18:56:00,1900-01-01 18:03:00,1900-01-01 03:37:00,Waxing Gibbous,93
Hisar,29.17,75.72,34.7,Sunny,10.1,262,W,1004.0,29.66,0.0,0.0,40,5,37.4,6.0,8.0,11.6,196.9,61.5,1.4,3.5,32.5,145.1,2,3,1900-01-01 06:03:00,1900-01-01 18:53:00,1900-01-01 17:59:00,1900-01-01 03:35:00,Waxing Gibbous,93
Rewari,28.18,76.62,33.1,Sunny,8.3,299,WNW,1005.0,29.68,0.0,0.0,44,8,35.5,6.0,8.0,9.6,237.0,70.1,2.1,1.3,28.4,141.3,2,3,1900-01-01 06:00:00,1900-01-01 18:48:00,1900-01-01 17:54:00,1900-01-01 03:34:00,Waxing Gibbous,93
Rohtak,28.9,76.57,33.9,Sunny,8.5,279,W,1005.0,29.67,0.0,0.0,42,6,36.5,6.0,8.0,9.8,230.3,67.2,1.8,1.9,29.2,134.6,2,3,1900-01-01 06:00:00,1900-01-01 18:49:00,1900-01-01 17:55:00,1900-01-01 03:32:00,Waxing Gibbous,93
Ambala,30.38,76.78,31.5,Sunny,5.6,321,NW,1005.0,29.67,0.0,0.0,56,10,35.1,6.0,8.0,6.5,741.0,123.0,3.9,11.6,121.1,152.7,4,10,1900-01-01 05:58:00,1900-01-01 18:50:00,1900-01-01 17:58:00,1900-01-01 03:28:00,Waxing Gibbous,93
Chandigarh,30.74,76.79,30.1,Sunny,5.4,328,NNW,1006.0,29.69,0.0,0.0,56,11,32.7,6.0,8.0,6.3,841.1,151.6,7.8,26.9,140.2,159.9,4,10,1900-01-01 05:57:00,1900-01-01 18:50:00,1900-01-01 17:59:00,1900-01-01 03:27:00,Waxing Gibbous,93
Goa,15.4,73.8,27.4,Patchy rain possible,2.2,256,WSW,1010.0,29.83,0.1,0.0,73,71,30.2,6.0,6.0,2.2,247.0,25.0,4.1,2.8,4.9,6.1,1,1,1900-01-01 06:22:00,1900-01-01 18:50:00,1900-01-01 17:41:00,1900-01-01 04:14:00,Waxing Gibbous,93
Arong,9.17,92.72,27.8,Light rain shower,22.8,259,W,1009.0,29.8,0.3,0.01,80,70,31.8,6.0,6.0,31.5,233.7,22.9,0.4,0.4,3.4,6.0,1,1,1900-01-01 05:11:00,1900-01-01 17:30:00,1900-01-01 16:11:00,1900-01-01 03:07:00,Waxing Gibbous,93
Siang,22.6,83.05,29.0,Sunny,3.8,293,WNW,1007.0,29.73,0.0,0.0,54,11,30.6,6.0,7.0,4.5,233.7,72.2,0.7,2.2,16.1,18.5,2,2,1900-01-01 05:40:00,1900-01-01 18:18:00,1900-01-01 17:16:00,1900-01-01 03:20:00,Waxing Gibbous,93
Upper Tirupati,13.68,79.35,32.0,Partly cloudy,11.0,313,NW,1009.0,29.78,0.0,0.0,53,30,35.5,6.0,8.0,12.5,181.9,31.5,1.1,0.5,2.0,3.8,1,1,1900-01-01 06:01:00,1900-01-01 18:26:00,1900-01-01 17:15:00,1900-01-01 03:54:00,Waxing Gibbous,93
Tawang,27.58,91.87,12.0,Patchy rain possible,6.7,220,SW,1009.0,29.8,0.1,0.0,72,77,11.0,6.0,3.0,11.2,198.6,80.8,0.2,0.0,3.0,3.4,1,1,1900-01-01 05:00:00,1900-01-01 17:47:00,1900-01-01 16:49:00,1900-01-01 02:31:00,Waxing Gibbous,93
Goalpara,26.17,90.62,30.9,Patchy rain possible,2.2,82,E,1004.0,29.65,0.1,0.0,69,73,36.6,6.0,7.0,2.7,507.4,86.6,2.3,2.6,54.2,59.7,3,7,1900-01-01 05:06:00,1900-01-01 17:51:00,1900-01-01 16:51:00,1900-01-01 02:40:00,Waxing Gibbous,93
Nalbari,26.42,91.43,30.0,Mist,9.4,10,N,1005.0,29.68,0.0,0.0,79,75,34.2,2.0,8.0,4.5,614.2,107.3,4.6,8.8,38.7,42.4,2,4,1900-01-01 05:03:00,1900-01-01 17:48:00,1900-01-01 16:49:00,1900-01-01 02:36:00,Waxing Gibbous,93
Dhubri,26.03,89.97,31.8,Patchy rain possible,2.5,234,SW,1004.0,29.65,0.1,0.0,63,89,37.6,6.0,7.0,2.9,560.8,75.8,3.0,2.8,66.9,74.0,4,9,1900-01-01 05:09:00,1900-01-01 17:53:00,1900-01-01 16:54:00,1900-01-01 02:43:00,Waxing Gibbous,93
Karimganj,24.87,92.35,32.0,Sunny,2.2,187,S,1003.0,29.62,0.0,0.0,66,25,38.8,6.0,8.0,2.0,467.3,42.9,3.0,3.0,20.6,22.4,2,2,1900-01-01 05:30:00,1900-01-01 18:13:00,1900-01-01 17:12:00,1900-01-01 03:06:00,Waxing Gibbous,93
Tinsukia,27.5,95.37,30.0,Mist,3.8,20,NNE,1005.0,29.68,0.6,0.02,75,75,38.4,3.0,6.0,4.0,340.5,53.6,0.5,0.5,3.2,3.8,1,1,1900-01-01 04:46:00,1900-01-01 17:33:00,1900-01-01 16:35:00,1900-01-01 02:16:00,Waxing Gibbous,93
Hailakandi,24.68,92.57,28.9,Patchy rain possible,2.2,179,S,1004.0,29.65,0.1,0.0,75,88,33.4,6.0,6.0,2.7,433.9,36.5,2.2,1.9,13.9,15.4,1,2,1900-01-01 04:59:00,1900-01-01 17:42:00,1900-01-01 16:40:00,1900-01-01 02:35:00,Waxing Gibbous,93
Dhemaji,27.48,94.58,30.0,Mist,3.8,20,NNE,1005.0,29.68,0.3,0.01,75,75,38.0,3.0,6.0,5.4,377.2,45.8,1.0,0.6,3.9,4.3,1,1,1900-01-01 04:49:00,1900-01-01 17:36:00,1900-01-01 16:38:00,1900-01-01 02:20:00,Waxing Gibbous,93
Lakhimpur,27.95,80.77,31.9,Patchy rain possible,4.5,270,W,1004.0,29.65,0.4,0.02,56,86,36.1,5.0,7.0,6.7,474.0,108.7,2.1,8.1,77.2,110.0,4,10,1900-01-01 05:44:00,1900-01-01 18:32:00,1900-01-01 17:36:00,1900-01-01 03:17:00,Waxing Gibbous,93
Bongaigaon,26.47,90.57,30.9,Patchy rain possible,2.2,82,E,1004.0,29.65,0.1,0.0,69,73,36.6,6.0,7.0,2.7,507.4,86.6,2.3,2.6,54.2,59.7,3,7,1900-01-01 05:06:00,1900-01-01 17:51:00,1900-01-01 16:52:00,1900-01-01 02:39:00,Waxing Gibbous,93
Baksa Duar,26.75,89.58,24.4,Partly cloudy,4.3,198,SSW,1007.0,29.75,0.0,0.0,73,32,26.1,6.0,6.0,4.9,417.2,83.0,0.3,1.2,32.7,35.4,2,3,1900-01-01 05:10:00,1900-01-01 17:56:00,1900-01-01 16:57:00,1900-01-01 02:43:00,Waxing Gibbous,93
Nagaon,17.47,73.62,28.7,Cloudy,2.2,229,SW,1010.0,29.83,0.0,0.0,72,82,32.5,6.0,6.0,2.2,200.3,22.4,1.3,0.5,3.7,4.5,1,1,1900-01-01 06:21:00,1900-01-01 18:52:00,1900-01-01 17:45:00,1900-01-01 04:10:00,Waxing Gibbous,93
Darrang,26.63,92.8,28.8,Light rain shower,3.6,48,NE,1005.0,29.67,0.2,0.01,78,81,33.8,6.0,6.0,4.7,594.1,59.4,3.6,1.6,16.8,18.6,2,2,1900-01-01 04:57:00,1900-01-01 17:43:00,1900-01-01 16:43:00,1900-01-01 02:29:00,Waxing Gibbous,93
Dibrugarh,27.48,94.9,30.0,Mist,3.8,20,NNE,1005.0,29.68,0.3,0.01,75,75,38.0,3.0,6.0,5.4,377.2,45.8,1.0,0.6,3.9,4.3,1,1,1900-01-01 04:48:00,1900-01-01 17:35:00,1900-01-01 16:36:00,1900-01-01 02:18:00,Waxing Gibbous,93
Barpeta,26.32,91.0,30.9,Patchy rain possible,2.2,82,E,1004.0,29.65,0.1,0.0,69,73,36.6,6.0,7.0,2.7,507.4,86.6,2.3,2.6,54.2,59.7,3,7,1900-01-01 05:04:00,1900-01-01 17:50:00,1900-01-01 16:50:00,1900-01-01 02:38:00,Waxing Gibbous,93
Udalguri,26.77,92.13,29.2,Patchy rain possible,4.9,91,E,1005.0,29.66,0.1,0.0,74,85,34.0,6.0,6.0,6.0,1014.7,37.2,28.1,6.6,38.6,50.5,2,4,1900-01-01 04:59:00,1900-01-01 17:46:00,1900-01-01 16:46:00,1900-01-01 02:32:00,Waxing Gibbous,93
Golaghat,26.52,93.97,29.0,Patchy rain possible,2.5,2,N,1005.0,29.67,0.1,0.0,75,76,33.7,6.0,6.0,2.9,507.4,48.6,2.5,1.3,8.4,9.9,1,1,1900-01-01 04:52:00,1900-01-01 17:38:00,1900-01-01 16:38:00,1900-01-01 02:25:00,Waxing Gibbous,93
Kokrajhar,26.4,90.27,30.9,Patchy rain possible,2.2,82,E,1004.0,29.65,0.1,0.0,69,73,36.6,6.0,7.0,2.7,507.4,86.6,2.3,2.6,54.2,59.7,3,7,1900-01-01 05:07:00,1900-01-01 17:53:00,1900-01-01 16:53:00,1900-01-01 02:41:00,Waxing Gibbous,93
Jorhat,26.75,94.22,30.0,Mist,3.8,20,NNE,1005.0,29.68,0.0,0.0,84,50,36.8,2.0,6.0,3.1,454.0,52.2,1.1,0.6,7.5,8.5,1,1,1900-01-01 04:51:00,1900-01-01 17:37:00,1900-01-01 16:38:00,1900-01-01 02:23:00,Waxing Gibbous,93
Yanam,16.73,82.22,33.8,Sunny,9.6,310,NW,1006.0,29.71,0.0,0.0,44,6,36.8,6.0,8.0,11.2,377.2,105.9,8.4,23.4,60.0,65.2,3,8,1900-01-01 05:47:00,1900-01-01 18:17:00,1900-01-01 17:08:00,1900-01-01 03:36:00,Waxing Gibbous,93
Karaikal,10.92,79.83,30.2,Light rain shower,9.4,231,SW,1009.0,29.79,0.3,0.01,66,66,34.6,6.0,7.0,13.0,330.5,39.7,11.5,6.6,13.2,17.9,1,2,1900-01-01 06:01:00,1900-01-01 18:22:00,1900-01-01 17:08:00,1900-01-01 03:58:00,Waxing Gibbous,93
Puducherry,11.93,79.83,30.9,Partly cloudy,7.4,254,WSW,1008.0,29.78,0.0,0.0,61,36,35.0,6.0,8.0,9.6,277.0,50.1,4.1,2.1,7.0,9.5,1,1,1900-01-01 06:00:00,1900-01-01 18:23:00,1900-01-01 17:10:00,1900-01-01 03:56:00,Waxing Gibbous,93
Mahe,11.7,75.53,29.9,Partly cloudy,7.8,301,WNW,1010.0,29.83,0.0,0.0,64,29,33.5,6.0,7.0,8.9,230.3,28.3,4.1,3.1,6.6,11.6,1,1,1900-01-01 06:17:00,1900-01-01 18:40:00,1900-01-01 17:27:00,1900-01-01 04:14:00,Waxing Gibbous,93
Lunglei,22.88,92.73,32.4,Partly cloudy,3.4,288,WNW,1004.0,29.65,0.0,0.0,54,62,36.4,6.0,8.0,3.8,290.4,31.8,0.9,0.1,3.9,4.1,1,1,1900-01-01 05:00:00,1900-01-01 17:40:00,1900-01-01 16:36:00,1900-01-01 02:38:00,Waxing Gibbous,93
Lawngtlai,22.53,92.9,31.9,Partly cloudy,3.4,273,W,1004.0,29.65,0.0,0.0,57,37,36.3,6.0,8.0,3.8,253.7,33.6,0.7,0.1,6.4,6.6,1,1,1900-01-01 05:00:00,1900-01-01 17:39:00,1900-01-01 16:35:00,1900-01-01 02:39:00,Waxing Gibbous,93
Saiha,22.48,92.97,31.9,Partly cloudy,3.4,273,W,1004.0,29.65,0.0,0.0,57,37,36.3,6.0,8.0,3.8,253.7,33.6,0.7,0.1,6.4,6.6,1,1,1900-01-01 05:00:00,1900-01-01 17:39:00,1900-01-01 16:34:00,1900-01-01 02:38:00,Waxing Gibbous,93
Serchhip,23.3,92.83,32.4,Partly cloudy,3.4,288,WNW,1004.0,29.65,0.0,0.0,54,62,36.4,6.0,8.0,3.8,290.4,31.8,0.9,0.1,3.9,4.1,1,1,1900-01-01 05:00:00,1900-01-01 17:40:00,1900-01-01 16:36:00,1900-01-01 02:37:00,Waxing Gibbous,93
Aizawl,23.72,92.72,28.3,Partly cloudy,2.7,337,NNW,1005.0,29.67,0.0,0.0,55,60,29.6,6.0,7.0,3.8,303.8,36.1,1.1,0.7,9.5,9.9,1,1,1900-01-01 05:00:00,1900-01-01 17:41:00,1900-01-01 16:38:00,1900-01-01 02:37:00,Waxing Gibbous,93
Mamit,23.93,92.48,28.3,Partly cloudy,2.7,337,NNW,1005.0,29.67,0.0,0.0,55,60,29.6,6.0,7.0,3.8,303.8,36.1,1.1,0.7,9.5,9.9,1,1,1900-01-01 05:00:00,1900-01-01 17:42:00,1900-01-01 16:39:00,1900-01-01 02:37:00,Waxing Gibbous,93
Chandel,15.73,73.88,27.7,Partly cloudy,2.5,250,WSW,1010.0,29.83,0.0,0.0,72,28,30.6,6.0,7.0,3.1,247.0,25.0,4.1,2.8,4.9,6.1,1,1,1900-01-01 06:21:00,1900-01-01 18:49:00,1900-01-01 17:41:00,1900-01-01 04:13:00,Waxing Gibbous,93
Tamenglong,24.97,93.55,29.0,Mist,3.8,180,S,1009.0,29.8,0.0,0.0,79,75,30.4,3.0,8.0,3.1,373.8,51.5,8.0,0.8,6.2,7.4,1,1,1900-01-01 04:55:00,1900-01-01 17:38:00,1900-01-01 16:37:00,1900-01-01 02:30:00,Waxing Gibbous,93
Ukhrul,25.12,94.37,23.7,Partly cloudy,2.2,350,N,1006.0,29.72,0.0,0.0,59,44,25.3,6.0,6.0,2.0,240.3,56.5,0.7,0.2,3.2,4.8,1,1,1900-01-01 04:52:00,1900-01-01 17:35:00,1900-01-01 16:34:00,1900-01-01 02:26:00,Waxing Gibbous,93
Bishnupur,22.38,88.27,34.0,Mist,6.9,300,WNW,1004.0,29.65,0.0,0.0,60,50,37.7,1.0,9.0,8.3,1161.6,134.5,26.4,42.0,182.7,229.6,5,10,1900-01-01 05:19:00,1900-01-01 17:57:00,1900-01-01 16:54:00,1900-01-01 02:59:00,Waxing Gibbous,93
Churachandpur,24.33,93.67,29.0,Mist,3.8,180,S,1009.0,29.8,0.0,0.0,79,75,30.9,3.0,7.0,2.2,277.0,30.0,0.6,0.2,2.1,2.7,1,1,1900-01-01 04:55:00,1900-01-01 17:37:00,1900-01-01 16:35:00,1900-01-01 02:31:00,Waxing Gibbous,93
Thoubal,24.63,94.02,29.0,Mist,3.8,180,S,1009.0,29.8,0.0,0.0,79,75,32.0,3.0,7.0,2.5,260.4,54.4,0.5,0.2,1.9,2.9,1,1,1900-01-01 04:54:00,1900-01-01 17:36:00,1900-01-01 16:34:00,1900-01-01 02:29:00,Waxing Gibbous,93
Imphal,24.82,93.95,29.0,Mist,3.8,180,S,1009.0,29.8,0.0,0.0,79,75,32.0,3.0,7.0,2.5,260.4,54.4,0.5,0.2,1.9,2.9,1,1,1900-01-01 04:54:00,1900-01-01 17:37:00,1900-01-01 16:35:00,1900-01-01 02:29:00,Waxing Gibbous,93
Kangpokpi,25.13,93.97,29.0,Mist,3.8,180,S,1009.0,29.8,0.0,0.0,79,75,32.0,3.0,7.0,2.5,260.4,54.4,0.5,0.2,1.9,2.9,1,1,1900-01-01 04:53:00,1900-01-01 17:37:00,1900-01-01 16:35:00,1900-01-01 02:28:00,Waxing Gibbous,93
Mon,26.75,95.1,29.2,Patchy rain possible,3.8,311,NW,1005.0,29.68,0.1,0.0,73,87,33.9,6.0,6.0,4.5,337.1,58.7,1.4,3.9,5.9,7.2,1,1,1900-01-01 04:47:00,1900-01-01 17:34:00,1900-01-01 16:34:00,1900-01-01 02:19:00,Waxing Gibbous,93
Tuensang,26.28,94.83,27.0,Patchy rain possible,3.1,315,NW,1006.0,29.7,0.2,0.01,74,82,29.7,5.0,6.0,4.0,427.3,36.5,1.0,0.3,6.5,7.5,1,1,1900-01-01 04:49:00,1900-01-01 17:34:00,1900-01-01 16:34:00,1900-01-01 02:22:00,Waxing Gibbous,93
Mokokchung,26.33,94.53,27.0,Patchy rain possible,3.1,315,NW,1006.0,29.7,0.2,0.01,74,82,29.7,5.0,6.0,4.0,427.3,36.5,1.0,0.3,6.5,7.5,1,1,1900-01-01 04:50:00,1900-01-01 17:36:00,1900-01-01 16:35:00,1900-01-01 02:23:00,Waxing Gibbous,93
Phek,25.67,94.5,26.7,Sunny,2.2,47,NE,1006.0,29.71,0.0,0.0,57,23,27.8,6.0,7.0,1.1,230.3,50.1,0.4,0.1,1.7,2.7,1,1,1900-01-01 04:51:00,1900-01-01 17:35:00,1900-01-01 16:34:00,1900-01-01 02:25:00,Waxing Gibbous,93
Kohima,25.67,94.12,29.6,Patchy rain possible,2.2,85,E,1005.0,29.67,0.1,0.0,75,83,35.1,6.0,6.0,2.2,363.8,42.6,0.7,0.7,7.8,9.0,1,1,1900-01-01 04:52:00,1900-01-01 17:37:00,1900-01-01 16:36:00,1900-01-01 02:26:00,Waxing Gibbous,93
Wokha,26.1,94.27,24.6,Patchy rain possible,3.1,301,WNW,1005.0,29.69,0.1,0.0,67,84,26.1,6.0,5.0,5.8,387.2,45.1,1.1,0.4,6.3,7.3,1,1,1900-01-01 04:51:00,1900-01-01 17:37:00,1900-01-01 16:36:00,1900-01-01 02:24:00,Waxing Gibbous,93
Zunheboto,25.97,94.52,23.8,Partly cloudy,2.2,160,SSE,1007.0,29.72,0.0,0.0,61,26,25.4,6.0,6.0,1.6,227.0,58.7,0.5,0.2,1.4,2.2,1,1,1900-01-01 04:50:00,1900-01-01 17:35:00,1900-01-01 16:35:00,1900-01-01 02:24:00,Waxing Gibbous,93
Dimapur,25.9,93.73,29.6,Patchy rain possible,2.2,85,E,1005.0,29.67,0.1,0.0,75,83,35.1,6.0,6.0,2.2,363.8,42.6,0.7,0.7,7.8,9.0,1,1,1900-01-01 04:54:00,1900-01-01 17:38:00,1900-01-01 16:38:00,1900-01-01 02:27:00,Waxing Gibbous,93
Khowai,24.1,91.63,33.0,Mist,3.8,40,NE,1004.0,29.65,0.0,0.0,67,50,40.0,3.0,8.0,2.5,380.5,48.6,3.4,1.2,18.6,20.3,2,2,1900-01-01 05:34:00,1900-01-01 18:15:00,1900-01-01 17:13:00,1900-01-01 03:11:00,Waxing Gibbous,93
Dharmanagar,24.37,92.17,31.4,Sunny,2.2,43,NE,1005.0,29.67,0.0,0.0,66,18,37.6,6.0,8.0,2.5,373.8,46.5,3.0,0.9,18.0,19.7,2,2,1900-01-01 05:01:00,1900-01-01 17:43:00,1900-01-01 16:41:00,1900-01-01 02:37:00,Waxing Gibbous,93
Dhalai,24.6,92.83,30.4,Patchy rain possible,2.2,184,S,1004.0,29.65,0.1,0.0,75,76,37.0,6.0,7.0,2.0,400.5,31.5,1.3,1.2,11.4,12.8,1,1,1900-01-01 04:58:00,1900-01-01 17:41:00,1900-01-01 16:39:00,1900-01-01 02:34:00,Waxing Gibbous,93
Nandi Hills,13.33,77.65,26.0,Partly cloudy,11.9,300,WNW,1015.0,29.97,0.0,0.0,58,50,26.6,6.0,7.0,13.6,188.6,26.1,1.5,0.5,1.0,2.0,1,1,1900-01-01 06:08:00,1900-01-01 18:33:00,1900-01-01 17:21:00,1900-01-01 04:02:00,Waxing Gibbous,93
Bastar,19.2,81.93,28.4,Sunny,6.0,316,NW,1008.0,29.77,0.0,0.0,58,18,30.0,6.0,7.0,6.9,200.3,64.4,0.7,6.9,24.0,26.1,2,3,1900-01-01 05:47:00,1900-01-01 18:20:00,1900-01-01 17:14:00,1900-01-01 03:32:00,Waxing Gibbous,93
Mungeli,22.07,81.68,30.5,Sunny,5.8,312,NW,1007.0,29.72,0.0,0.0,52,7,32.7,6.0,8.0,6.7,247.0,62.9,0.7,0.7,16.9,20.8,2,2,1900-01-01 05:45:00,1900-01-01 18:23:00,1900-01-01 17:21:00,1900-01-01 03:27:00,Waxing Gibbous,93
Gariaband,20.64,82.06,29.8,Sunny,6.7,297,WNW,1007.0,29.74,0.0,0.0,55,11,32.0,6.0,7.0,7.8,317.1,71.5,4.6,14.1,37.3,42.2,2,4,1900-01-01 05:45:00,1900-01-01 18:20:00,1900-01-01 17:16:00,1900-01-01 03:29:00,Waxing Gibbous,93
Sukma,18.4,81.67,30.8,Sunny,2.2,335,NNW,1008.0,29.76,0.0,0.0,61,15,34.8,6.0,8.0,1.6,200.3,70.1,0.8,5.5,20.0,21.6,2,2,1900-01-01 05:48:00,1900-01-01 18:20:00,1900-01-01 17:14:00,1900-01-01 03:35:00,Waxing Gibbous,93
Kanker,20.27,81.49,29.5,Sunny,7.6,294,WNW,1007.0,29.74,0.0,0.0,58,16,31.8,6.0,7.0,8.7,250.3,73.7,1.9,4.4,29.0,33.4,2,3,1900-01-01 05:48:00,1900-01-01 18:22:00,1900-01-01 17:18:00,1900-01-01 03:32:00,Waxing Gibbous,93
Surguja,23.12,83.2,28.7,Sunny,5.8,287,WNW,1007.0,29.73,0.0,0.0,58,8,30.6,6.0,7.0,6.7,240.3,65.8,1.4,2.9,21.8,25.3,2,2,1900-01-01 05:39:00,1900-01-01 18:18:00,1900-01-01 17:16:00,1900-01-01 03:18:00,Waxing Gibbous,93
Balrampur,27.43,82.18,32.1,Patchy rain possible,2.2,286,WNW,1004.0,29.65,0.1,0.0,58,87,37.1,6.0,7.0,2.2,467.3,85.8,3.8,9.7,71.7,87.0,4,10,1900-01-01 05:39:00,1900-01-01 18:25:00,1900-01-01 17:29:00,1900-01-01 03:12:00,Waxing Gibbous,93
Kondagaon,19.6,81.67,28.4,Partly cloudy,7.6,310,NW,1008.0,29.76,0.0,0.0,56,46,29.9,6.0,7.0,8.7,203.6,65.1,0.8,5.3,21.2,23.7,2,2,1900-01-01 05:47:00,1900-01-01 18:21:00,1900-01-01 17:16:00,1900-01-01 03:33:00,Waxing Gibbous,93
Narayanpur,26.37,76.63,30.4,Sunny,13.0,261,W,1006.0,29.71,0.0,0.0,56,4,33.0,6.0,8.0,15.0,217.0,57.2,1.0,1.1,13.7,41.1,1,2,1900-01-01 06:02:00,1900-01-01 18:47:00,1900-01-01 17:50:00,1900-01-01 03:38:00,Waxing Gibbous,93
Durg,21.18,81.28,30.3,Sunny,6.3,292,WNW,1007.0,29.73,0.0,0.0,53,20,32.5,6.0,8.0,7.2,460.6,48.6,21.9,78.2,29.6,36.3,2,3,1900-01-01 05:48:00,1900-01-01 18:24:00,1900-01-01 17:20:00,1900-01-01 03:31:00,Waxing Gibbous,93
Surajpur,30.78,76.9,30.1,Sunny,5.6,326,NNW,1006.0,29.7,0.0,0.0,56,11,32.5,6.0,8.0,6.5,801.1,153.1,10.4,26.7,100.2,115.8,4,10,1900-01-01 05:57:00,1900-01-01 18:50:00,1900-01-01 17:58:00,1900-01-01 03:26:00,Waxing Gibbous,93
Bijapur,16.83,75.7,28.7,Sunny,12.8,296,WNW,1010.0,29.82,0.0,0.0,48,9,29.4,6.0,7.0,14.8,201.9,44.7,1.8,0.8,3.7,6.2,1,1,1900-01-01 06:13:00,1900-01-01 18:43:00,1900-01-01 17:36:00,1900-01-01 04:03:00,Waxing Gibbous,93
Raipur,21.23,81.63,30.2,Sunny,6.5,293,WNW,1007.0,29.73,0.0,0.0,54,15,32.4,6.0,8.0,7.4,257.0,70.8,1.2,2.5,20.4,26.3,2,2,1900-01-01 05:46:00,1900-01-01 18:23:00,1900-01-01 17:19:00,1900-01-01 03:29:00,Waxing Gibbous,93
Baloda Bazar,21.67,82.17,30.5,Sunny,6.5,286,WNW,1007.0,29.72,0.0,0.0,54,7,33.0,6.0,8.0,7.4,280.4,70.8,9.5,32.0,32.9,37.4,2,3,1900-01-01 05:44:00,1900-01-01 18:21:00,1900-01-01 17:18:00,1900-01-01 03:26:00,Waxing Gibbous,93
Balod,20.73,81.2,29.5,Sunny,7.6,294,WNW,1007.0,29.74,0.0,0.0,58,16,31.8,6.0,7.0,8.7,250.3,73.7,1.9,4.4,29.0,33.4,2,3,1900-01-01 05:48:00,1900-01-01 18:24:00,1900-01-01 17:20:00,1900-01-01 03:32:00,Waxing Gibbous,93
Dhamtari,20.71,81.55,29.5,Sunny,7.6,294,WNW,1007.0,29.74,0.0,0.0,58,16,31.8,6.0,7.0,8.7,250.3,73.7,1.9,4.4,29.0,33.4,2,3,1900-01-01 05:47:00,1900-01-01 18:22:00,1900-01-01 17:18:00,1900-01-01 03:31:00,Waxing Gibbous,93
Korba,22.35,82.68,30.7,Sunny,4.9,337,NNW,1007.0,29.72,0.0,0.0,53,22,33.2,6.0,8.0,5.6,253.7,64.4,17.3,64.9,27.0,31.3,2,3,1900-01-01 05:41:00,1900-01-01 18:19:00,1900-01-01 17:17:00,1900-01-01 03:22:00,Waxing Gibbous,93
Raigarh,21.9,83.4,30.6,Sunny,5.8,269,W,1006.0,29.72,0.0,0.0,54,5,33.2,6.0,8.0,6.7,303.8,100.1,3.5,14.5,40.4,47.2,3,4,1900-01-01 05:39:00,1900-01-01 18:16:00,1900-01-01 17:13:00,1900-01-01 03:20:00,Waxing Gibbous,93
Jashpur,22.9,84.15,28.9,Sunny,2.2,33,NNE,1007.0,29.73,0.0,0.0,53,20,30.3,6.0,7.0,2.7,207.0,60.8,2.6,6.4,13.4,18.1,1,2,1900-01-01 05:35:00,1900-01-01 18:14:00,1900-01-01 17:12:00,1900-01-01 03:15:00,Waxing Gibbous,93
Mahasamund,21.1,82.1,30.2,Sunny,6.5,293,WNW,1007.0,29.73,0.0,0.0,54,15,32.4,6.0,8.0,7.4,257.0,70.8,1.2,2.5,20.4,26.3,2,2,1900-01-01 05:45:00,1900-01-01 18:21:00,1900-01-01 17:17:00,1900-01-01 03:27:00,Waxing Gibbous,93
Janjgir,22.02,82.57,30.5,Sunny,6.5,286,WNW,1007.0,29.72,0.0,0.0,54,7,33.0,6.0,8.0,7.4,280.4,70.8,9.5,32.0,32.9,37.4,2,3,1900-01-01 05:42:00,1900-01-01 18:19:00,1900-01-01 17:17:00,1900-01-01 03:23:00,Waxing Gibbous,93
Dehradun,30.32,78.03,28.6,Sunny,3.8,242,WSW,1006.0,29.71,0.0,0.0,58,6,30.5,6.0,7.0,4.5,467.3,140.2,2.1,6.2,54.8,61.3,3,7,1900-01-01 05:53:00,1900-01-01 18:45:00,1900-01-01 17:53:00,1900-01-01 03:23:00,Waxing Gibbous,93
Almora,29.62,79.67,26.3,Sunny,3.8,240,WSW,1007.0,29.72,0.0,0.0,59,11,27.4,6.0,7.0,4.5,410.6,77.3,3.0,1.7,46.6,56.6,3,5,1900-01-01 05:47:00,1900-01-01 18:37:00,1900-01-01 17:44:00,1900-01-01 03:18:00,Waxing Gibbous,93
Champawat,29.33,80.1,27.9,Patchy rain possible,2.2,159,SSE,1006.0,29.7,0.1,0.0,63,83,29.9,6.0,6.0,2.7,347.1,66.5,0.3,0.7,32.2,37.2,2,3,1900-01-01 05:45:00,1900-01-01 18:35:00,1900-01-01 17:42:00,1900-01-01 03:16:00,Waxing Gibbous,93
Uttarkashi,30.73,78.45,4.0,Sunny,8.1,239,WSW,1014.0,29.94,0.0,0.0,48,5,0.8,6.0,2.0,11.9,150.2,90.8,0.0,0.1,3.2,4.2,1,1,1900-01-01 05:51:00,1900-01-01 18:43:00,1900-01-01 17:52:00,1900-01-01 03:20:00,Waxing Gibbous,93
Garhwal,29.8,78.62,30.5,Sunny,4.9,291,WNW,1005.0,29.67,0.0,0.0,63,14,34.7,6.0,8.0,5.8,527.4,135.9,2.5,10.4,123.5,138.9,4,10,1900-01-01 05:51:00,1900-01-01 18:42:00,1900-01-01 17:49:00,1900-01-01 03:22:00,Waxing Gibbous,93
Hardwar,29.97,78.17,30.5,Sunny,3.6,266,W,1005.0,29.68,0.0,0.0,60,7,34.0,6.0,8.0,4.0,474.0,124.5,1.4,8.6,87.7,101.1,4,10,1900-01-01 05:53:00,1900-01-01 18:44:00,1900-01-01 17:51:00,1900-01-01 03:23:00,Waxing Gibbous,93
Rudraprayag,30.28,78.98,26.1,Sunny,2.5,262,W,1007.0,29.74,0.0,0.0,64,14,27.6,6.0,7.0,2.9,387.2,75.1,0.6,0.9,26.5,28.5,2,3,1900-01-01 05:49:00,1900-01-01 18:41:00,1900-01-01 17:49:00,1900-01-01 03:19:00,Waxing Gibbous,93
Tehri-Garhwal,30.38,78.48,23.5,Sunny,4.3,243,WSW,1007.0,29.74,0.0,0.0,60,9,25.2,6.0,6.0,6.3,353.8,94.4,0.6,1.4,19.9,22.3,2,2,1900-01-01 05:51:00,1900-01-01 18:43:00,1900-01-01 17:51:00,1900-01-01 03:21:00,Waxing Gibbous,93
Bageshwar,29.85,79.77,15.2,Sunny,8.3,196,SSW,1012.0,29.87,0.0,0.0,63,10,15.2,6.0,5.0,9.6,170.2,76.5,0.1,0.1,6.5,8.2,1,1,1900-01-01 05:46:00,1900-01-01 18:37:00,1900-01-01 17:44:00,1900-01-01 03:17:00,Waxing Gibbous,93
Pithoragarh,29.58,80.22,27.9,Patchy rain possible,2.2,159,SSE,1006.0,29.7,0.1,0.0,63,83,29.9,6.0,6.0,2.7,347.1,66.5,0.3,0.7,32.2,37.2,2,3,1900-01-01 05:45:00,1900-01-01 18:35:00,1900-01-01 17:42:00,1900-01-01 03:15:00,Waxing Gibbous,93
Chamoli,30.4,79.35,13.4,Patchy rain possible,6.7,226,SW,1012.0,29.88,0.1,0.0,65,79,12.5,6.0,3.0,8.3,205.3,61.5,0.2,0.3,8.4,12.0,1,1,1900-01-01 05:47:00,1900-01-01 18:39:00,1900-01-01 17:47:00,1900-01-01 03:17:00,Waxing Gibbous,93
Nagar,23.27,82.45,28.8,Sunny,6.7,293,WNW,1007.0,29.74,0.0,0.0,58,19,30.7,6.0,7.0,7.8,210.3,65.8,0.9,2.1,13.5,17.6,1,2,1900-01-01 05:41:00,1900-01-01 18:21:00,1900-01-01 17:20:00,1900-01-01 03:21:00,Waxing Gibbous,93
Kannur,11.87,75.37,29.6,Sunny,8.7,309,NW,1010.0,29.83,0.0,0.0,66,20,33.2,6.0,7.0,10.1,220.3,28.3,4.0,1.7,6.8,11.9,1,1,1900-01-01 06:18:00,1900-01-01 18:41:00,1900-01-01 17:28:00,1900-01-01 04:14:00,Waxing Gibbous,93
Pathanamthitta,9.27,76.78,32.8,Partly cloudy,3.4,301,WNW,1010.0,29.83,0.0,0.0,50,56,36.5,6.0,8.0,3.8,307.1,11.0,14.7,9.7,9.7,12.7,1,1,1900-01-01 06:14:00,1900-01-01 18:33:00,1900-01-01 17:18:00,1900-01-01 04:13:00,Waxing Gibbous,93
Alappuzha,9.49,76.33,28.3,Partly cloudy,3.8,323,NW,1011.0,29.84,0.0,0.0,71,31,31.7,6.0,7.0,4.5,158.6,31.1,0.7,0.4,3.5,7.2,1,1,1900-01-01 06:16:00,1900-01-01 18:35:00,1900-01-01 17:20:00,1900-01-01 04:15:00,Waxing Gibbous,93
Ernakulam,9.98,76.28,31.0,Mist,6.9,10,N,1010.0,29.83,0.0,0.0,63,50,37.2,3.0,7.0,5.1,390.5,9.1,18.9,6.1,11.0,22.5,1,1,1900-01-01 06:16:00,1900-01-01 18:36:00,1900-01-01 17:21:00,1900-01-01 04:14:00,Waxing Gibbous,93
Kollam,8.88,76.59,28.6,Sunny,2.2,249,WSW,1010.0,29.84,0.0,0.0,69,21,32.0,6.0,7.0,2.0,166.9,33.6,1.0,0.8,2.5,4.2,1,1,1900-01-01 06:15:00,1900-01-01 18:34:00,1900-01-01 17:18:00,1900-01-01 04:15:00,Waxing Gibbous,93
Kasaragod,12.5,75.0,29.0,Partly cloudy,6.9,290,WNW,1011.0,29.85,0.1,0.0,75,75,33.5,3.0,6.0,8.3,220.3,30.4,3.9,2.3,6.5,9.7,1,1,1900-01-01 06:19:00,1900-01-01 18:43:00,1900-01-01 17:31:00,1900-01-01 04:14:00,Waxing Gibbous,93
Idukki,9.85,76.97,29.7,Partly cloudy,5.4,258,WSW,1011.0,29.85,0.0,0.0,53,44,31.4,6.0,7.0,6.3,208.6,24.7,2.7,0.5,3.1,5.0,1,1,1900-01-01 06:13:00,1900-01-01 18:33:00,1900-01-01 17:18:00,1900-01-01 04:11:00,Waxing Gibbous,93
Kozhikode,11.25,75.77,29.0,Partly cloudy,9.4,300,WNW,1010.0,29.83,0.0,0.0,62,50,32.4,3.0,7.0,11.9,200.3,33.3,1.7,1.8,7.0,13.4,1,1,1900-01-01 06:17:00,1900-01-01 18:39:00,1900-01-01 17:26:00,1900-01-01 04:14:00,Waxing Gibbous,93
Kottayam,9.58,76.52,32.3,Sunny,3.8,310,NW,1010.0,29.83,0.0,0.0,52,22,35.9,6.0,8.0,4.5,240.3,20.0,7.2,6.3,6.2,9.0,1,1,1900-01-01 06:15:00,1900-01-01 18:35:00,1900-01-01 17:20:00,1900-01-01 04:14:00,Waxing Gibbous,93
Thrissur,10.52,76.22,31.0,Mist,6.9,10,N,1010.0,29.83,0.0,0.0,63,50,35.2,3.0,8.0,6.0,240.3,19.9,5.7,4.6,6.5,10.4,1,1,1900-01-01 06:16:00,1900-01-01 18:36:00,1900-01-01 17:22:00,1900-01-01 04:13:00,Waxing Gibbous,93
Palakkad,10.77,76.65,31.0,Partly cloudy,4.3,190,S,1011.0,29.85,0.0,0.0,52,25,34.7,3.0,8.0,10.7,310.4,17.4,8.3,5.7,12.6,19.9,1,2,1900-01-01 06:14:00,1900-01-01 18:35:00,1900-01-01 17:21:00,1900-01-01 04:11:00,Waxing Gibbous,93
Thiruvananthapuram,8.51,76.96,30.0,Partly cloudy,5.6,260,W,1010.0,29.83,0.1,0.0,75,50,32.7,3.0,7.0,6.7,240.3,30.4,5.9,4.5,4.1,7.4,1,1,1900-01-01 06:14:00,1900-01-01 18:32:00,1900-01-01 17:16:00,1900-01-01 04:14:00,Waxing Gibbous,93
Malappuram,11.07,76.07,29.0,Partly cloudy,9.4,300,WNW,1010.0,29.83,0.0,0.0,62,50,30.4,3.0,8.0,5.1,277.0,25.8,6.5,6.3,7.7,12.6,1,1,1900-01-01 06:16:00,1900-01-01 18:37:00,1900-01-01 17:24:00,1900-01-01 04:13:00,Waxing Gibbous,93
Kavaratti,10.57,72.62,27.6,Partly cloudy,12.3,314,NW,1011.0,29.85,0.0,0.0,79,50,31.3,6.0,7.0,17.0,170.2,36.8,0.1,0.3,4.5,11.7,1,1,1900-01-01 06:30:00,1900-01-01 18:51:00,1900-01-01 17:38:00,1900-01-01 04:28:00,Waxing Gibbous,93
Puri District,19.8,85.85,32.0,Mist,10.5,320,NW,1005.0,29.68,0.0,0.0,63,50,36.4,2.0,8.0,9.8,370.5,93.0,1.7,6.8,50.2,55.1,3,6,1900-01-01 05:31:00,1900-01-01 18:05:00,1900-01-01 16:59:00,1900-01-01 03:14:00,Waxing Gibbous,93
Nadia,23.42,88.37,33.7,Patchy rain possible,5.6,298,WNW,1004.0,29.65,0.1,0.0,52,77,38.8,6.0,7.0,6.7,370.5,74.4,5.9,6.4,28.6,39.1,2,3,1900-01-01 05:18:00,1900-01-01 17:58:00,1900-01-01 16:55:00,1900-01-01 02:56:00,Waxing Gibbous,93
Murshidabad,24.18,88.27,33.6,Sunny,4.7,352,N,1004.0,29.65,0.0,0.0,52,23,38.8,6.0,8.0,5.4,330.5,84.4,15.8,39.1,35.9,47.4,2,3,1900-01-01 05:17:00,1900-01-01 17:59:00,1900-01-01 16:57:00,1900-01-01 02:54:00,Waxing Gibbous,93
Kolkata,22.57,88.37,34.0,Mist,6.9,300,WNW,1004.0,29.65,0.0,0.0,60,50,38.3,1.0,8.0,7.6,1161.6,134.5,26.4,42.0,182.7,229.6,5,10,1900-01-01 05:18:00,1900-01-01 17:57:00,1900-01-01 16:54:00,1900-01-01 02:58:00,Waxing Gibbous,93
Maldah,25.03,88.15,33.1,Sunny,6.3,330,NNW,1004.0,29.65,0.0,0.0,55,18,38.4,6.0,8.0,7.2,400.5,118.7,5.7,19.1,60.9,71.1,3,8,1900-01-01 05:17:00,1900-01-01 18:00:00,1900-01-01 16:59:00,1900-01-01 02:53:00,Waxing Gibbous,93
Darjiling,27.03,88.27,21.4,Partly cloudy,5.4,149,SSE,1007.0,29.74,0.0,0.0,69,33,21.4,6.0,6.0,9.6,427.3,91.6,0.8,1.0,22.4,23.4,2,2,1900-01-01 05:15:00,1900-01-01 18:01:00,1900-01-01 17:03:00,1900-01-01 02:48:00,Waxing Gibbous,93
Jalpaiguri,26.52,88.73,31.6,Sunny,2.2,150,SSE,1004.0,29.66,0.0,0.0,64,20,37.2,6.0,8.0,2.5,600.8,88.7,2.9,3.0,60.0,64.7,3,8,1900-01-01 05:13:00,1900-01-01 17:59:00,1900-01-01 17:00:00,1900-01-01 02:47:00,Waxing Gibbous,93
Medinipur,22.43,87.33,33.4,Sunny,8.9,335,NNW,1004.0,29.66,0.0,0.0,49,19,37.5,6.0,8.0,10.3,627.5,85.8,14.9,43.9,141.0,159.9,4,10,1900-01-01 05:23:00,1900-01-01 18:01:00,1900-01-01 16:58:00,1900-01-01 03:02:00,Waxing Gibbous,93
Haora,22.59,88.31,34.0,Mist,6.9,300,WNW,1004.0,29.65,0.0,0.0,60,50,38.2,1.0,8.0,8.1,1161.6,134.5,26.4,42.0,182.7,229.6,5,10,1900-01-01 05:18:00,1900-01-01 17:57:00,1900-01-01 16:54:00,1900-01-01 02:58:00,Waxing Gibbous,93
Barddhaman,23.24,87.87,33.6,Sunny,7.8,327,NNW,1004.0,29.65,0.0,0.0,51,17,38.5,6.0,8.0,8.9,320.4,80.8,8.6,17.4,32.7,42.8,2,3,1900-01-01 05:20:00,1900-01-01 17:59:00,1900-01-01 16:57:00,1900-01-01 02:58:00,Waxing Gibbous,93
Bankura,23.25,87.07,33.8,Sunny,6.3,335,NNW,1005.0,29.66,0.0,0.0,44,11,37.0,6.0,8.0,7.2,343.8,77.3,8.3,21.7,72.7,88.8,4,10,1900-01-01 05:23:00,1900-01-01 18:03:00,1900-01-01 17:00:00,1900-01-01 03:02:00,Waxing Gibbous,93
Puruliya,23.33,86.37,32.3,Sunny,6.5,327,NNW,1005.0,29.69,0.0,0.0,48,14,34.9,6.0,8.0,7.4,500.7,45.4,21.1,65.8,69.4,83.1,4,9,1900-01-01 05:26:00,1900-01-01 18:05:00,1900-01-01 17:03:00,1900-01-01 03:04:00,Waxing Gibbous,93
Koch Bihar,26.32,89.43,31.5,Patchy rain possible,2.5,145,SE,1004.0,29.65,0.1,0.0,65,71,37.4,6.0,7.0,3.1,587.5,89.4,4.2,1.9,47.7,52.4,3,5,1900-01-01 05:11:00,1900-01-01 17:56:00,1900-01-01 16:57:00,1900-01-01 02:44:00,Waxing Gibbous,93
Hugli,22.9,88.4,34.0,Mist,6.9,300,WNW,1004.0,29.65,0.2,0.01,60,50,39.2,1.0,7.0,8.3,881.2,105.9,16.5,33.9,185.5,208.2,5,10,1900-01-01 05:18:00,1900-01-01 17:57:00,1900-01-01 16:54:00,1900-01-01 02:57:00,Waxing Gibbous,93
Pathankot,32.28,75.65,27.3,Patchy rain possible,3.4,306,NW,1006.0,29.71,0.2,0.01,68,82,29.4,5.0,6.0,4.5,567.4,123.0,3.2,2.1,39.1,44.5,2,4,1900-01-01 06:00:00,1900-01-01 18:56:00,1900-01-01 18:07:00,1900-01-01 03:27:00,Waxing Gibbous,93
Gurdaspur,32.03,75.52,27.3,Patchy rain possible,3.6,309,NW,1006.0,29.71,0.2,0.01,68,80,29.5,5.0,6.0,4.7,567.4,123.0,3.2,2.1,39.1,44.5,2,4,1900-01-01 06:01:00,1900-01-01 18:57:00,1900-01-01 18:07:00,1900-01-01 03:29:00,Waxing Gibbous,93
Patiala,30.33,76.4,32.1,Sunny,4.7,321,NW,1005.0,29.67,0.0,0.0,53,8,35.9,6.0,8.0,5.4,660.9,114.4,3.8,7.4,96.0,132.6,4,10,1900-01-01 05:59:00,1900-01-01 18:51:00,1900-01-01 17:59:00,1900-01-01 03:29:00,Waxing Gibbous,93
Tarn Taran,31.45,74.93,29.0,Mist,2.2,48,NE,1005.0,29.68,0.0,0.0,84,75,29.9,3.0,8.0,8.3,774.4,137.3,7.7,14.3,81.9,102.2,4,10,1900-01-01 06:04:00,1900-01-01 18:58:00,1900-01-01 18:08:00,1900-01-01 03:33:00,Waxing Gibbous,93
Kapurthala,31.38,75.38,29.0,Mist,2.2,69,ENE,1005.0,29.68,0.2,0.01,84,75,30.8,3.0,7.0,4.3,634.2,128.8,2.2,4.8,86.4,112.0,4,10,1900-01-01 06:02:00,1900-01-01 18:56:00,1900-01-01 18:06:00,1900-01-01 03:31:00,Waxing Gibbous,93
Fatehgarh Sahib,30.53,75.72,32.7,Sunny,2.9,318,NW,1005.0,29.67,0.0,0.0,50,6,36.3,6.0,8.0,3.4,594.1,95.8,2.5,6.2,101.1,130.0,4,10,1900-01-01 06:02:00,1900-01-01 18:54:00,1900-01-01 18:02:00,1900-01-01 03:32:00,Waxing Gibbous,93
Sangrur,30.23,75.83,33.5,Sunny,5.8,296,WNW,1005.0,29.67,0.0,0.0,45,6,36.5,6.0,8.0,6.7,560.8,88.0,6.6,3.0,70.3,135.9,4,9,1900-01-01 06:01:00,1900-01-01 18:54:00,1900-01-01 18:01:00,1900-01-01 03:32:00,Waxing Gibbous,93
Mansa,29.98,75.38,34.4,Sunny,6.7,278,W,1004.0,29.66,0.0,0.0,41,5,37.1,6.0,8.0,7.8,217.0,70.1,2.7,7.0,32.0,132.1,2,3,1900-01-01 06:03:00,1900-01-01 18:55:00,1900-01-01 18:03:00,1900-01-01 03:35:00,Waxing Gibbous,93
Amritsar,31.63,74.87,29.0,Mist,2.2,48,NE,1005.0,29.68,0.2,0.01,84,75,30.7,3.0,7.0,11.2,707.6,137.3,5.3,16.5,79.8,98.8,4,10,1900-01-01 06:04:00,1900-01-01 18:59:00,1900-01-01 18:08:00,1900-01-01 03:32:00,Waxing Gibbous,93
Faridkot,30.67,74.75,34.2,Sunny,3.8,272,W,1004.0,29.66,0.0,0.0,43,9,37.3,6.0,8.0,4.5,534.1,108.7,3.7,3.9,86.6,127.4,4,10,1900-01-01 06:05:00,1900-01-01 18:58:00,1900-01-01 18:07:00,1900-01-01 03:36:00,Waxing Gibbous,93
Ludhiana,30.9,75.85,30.4,Patchy rain possible,2.5,65,ENE,1005.0,29.68,0.1,0.0,61,84,34.0,6.0,7.0,3.1,948.0,151.6,11.8,42.9,187.3,211.6,5,10,1900-01-01 06:01:00,1900-01-01 18:54:00,1900-01-01 18:03:00,1900-01-01 03:30:00,Waxing Gibbous,93
Jalandhar,31.33,75.58,30.9,Patchy rain possible,2.7,100,E,1005.0,29.68,0.2,0.01,59,85,34.6,5.0,7.0,3.6,867.8,158.8,5.7,10.1,122.4,149.4,4,10,1900-01-01 06:01:00,1900-01-01 18:56:00,1900-01-01 18:05:00,1900-01-01 03:30:00,Waxing Gibbous,93
Muktsar,30.48,74.52,34.5,Sunny,5.1,251,WSW,1004.0,29.65,0.0,0.0,42,10,37.5,6.0,8.0,5.8,534.1,103.0,3.7,6.7,91.3,151.0,4,10,1900-01-01 06:06:00,1900-01-01 18:59:00,1900-01-01 18:07:00,1900-01-01 03:37:00,Waxing Gibbous,93
Moga,30.8,75.17,34.6,Sunny,2.5,305,NW,1004.0,29.66,0.0,0.0,42,6,37.8,6.0,8.0,2.9,534.1,110.2,2.9,3.4,91.2,131.6,4,10,1900-01-01 06:04:00,1900-01-01 18:57:00,1900-01-01 18:05:00,1900-01-01 03:33:00,Waxing Gibbous,93
Hoshiarpur,31.53,75.92,30.2,Patchy rain possible,2.2,340,NNW,1006.0,29.7,0.5,0.02,60,87,33.5,5.0,7.0,2.5,614.2,130.2,3.3,3.7,60.9,69.9,3,8,1900-01-01 06:00:00,1900-01-01 18:54:00,1900-01-01 18:04:00,1900-01-01 03:28:00,Waxing Gibbous,93
Rupnagar,30.97,76.53,30.1,Sunny,5.6,326,NNW,1006.0,29.7,0.0,0.0,56,11,32.5,6.0,8.0,6.5,801.1,153.1,10.4,26.7,100.2,115.8,4,10,1900-01-01 05:58:00,1900-01-01 18:51:00,1900-01-01 18:00:00,1900-01-01 03:27:00,Waxing Gibbous,93
Firozpur,30.92,74.6,34.7,Sunny,2.2,323,NW,1004.0,29.65,0.0,0.0,42,10,37.8,6.0,8.0,2.0,634.2,105.9,5.4,4.1,79.9,104.5,4,10,1900-01-01 06:06:00,1900-01-01 18:59:00,1900-01-01 18:08:00,1900-01-01 03:36:00,Waxing Gibbous,93
Fazilka,30.4,74.03,35.2,Sunny,7.2,230,SW,1004.0,29.64,0.0,0.0,40,8,38.1,6.0,9.0,8.3,423.9,86.6,2.6,3.2,65.7,151.8,4,9,1900-01-01 06:08:00,1900-01-01 19:01:00,1900-01-01 18:09:00,1900-01-01 03:39:00,Waxing Gibbous,93
Barnala,30.38,75.55,33.7,Sunny,4.9,297,WNW,1005.0,29.66,0.0,0.0,44,6,36.7,6.0,8.0,5.6,494.0,88.0,2.7,3.0,71.2,131.2,4,10,1900-01-01 06:02:00,1900-01-01 18:55:00,1900-01-01 18:03:00,1900-01-01 03:33:00,Waxing Gibbous,93
Mandya,12.52,76.9,27.8,Sunny,6.9,305,NW,1011.0,29.85,0.0,0.0,54,19,28.9,6.0,7.0,8.1,205.3,19.0,3.4,0.5,1.3,2.5,1,1,1900-01-01 06:11:00,1900-01-01 18:35:00,1900-01-01 17:23:00,1900-01-01 04:07:00,Waxing Gibbous,93
Mysore,12.31,76.65,27.4,Sunny,7.4,292,WNW,1011.0,29.85,0.0,0.0,54,18,28.3,6.0,7.0,8.5,220.3,15.2,5.5,2.0,1.4,2.7,1,1,1900-01-01 06:13:00,1900-01-01 18:36:00,1900-01-01 17:24:00,1900-01-01 04:08:00,Waxing Gibbous,93
Yadgir,16.77,77.13,29.5,Partly cloudy,10.5,309,NW,1009.0,29.8,0.0,0.0,53,30,31.0,6.0,7.0,12.1,208.6,29.0,2.2,0.8,2.8,5.2,1,1,1900-01-01 06:07:00,1900-01-01 18:37:00,1900-01-01 17:30:00,1900-01-01 03:57:00,Waxing Gibbous,93
Chikmagalur,13.32,75.78,25.3,Partly cloudy,6.9,288,WNW,1012.0,29.87,0.0,0.0,60,31,26.4,6.0,7.0,8.1,181.9,20.4,1.5,1.3,1.9,3.1,1,1,1900-01-01 06:15:00,1900-01-01 18:40:00,1900-01-01 17:29:00,1900-01-01 04:10:00,Waxing Gibbous,93
Chitradurga,14.23,76.4,27.1,Sunny,14.8,293,WNW,1011.0,29.85,0.0,0.0,57,8,28.3,6.0,7.0,17.0,195.3,22.5,2.3,1.2,1.5,2.3,1,1,1900-01-01 06:12:00,1900-01-01 18:38:00,1900-01-01 17:28:00,1900-01-01 04:05:00,Waxing Gibbous,93
Haveri,14.8,75.4,27.7,Partly cloudy,11.0,278,W,1011.0,29.85,0.0,0.0,60,54,29.3,6.0,7.0,12.5,181.9,27.5,1.6,0.3,1.1,1.7,1,1,1900-01-01 06:16:00,1900-01-01 18:43:00,1900-01-01 17:33:00,1900-01-01 04:08:00,Waxing Gibbous,93
Raichur,16.2,77.37,30.5,Sunny,11.9,308,NW,1009.0,29.8,0.0,0.0,48,12,31.9,6.0,8.0,13.6,198.6,35.1,1.9,0.5,2.5,5.1,1,1,1900-01-01 06:07:00,1900-01-01 18:36:00,1900-01-01 17:28:00,1900-01-01 03:57:00,Waxing Gibbous,93
Kolar,13.13,78.13,26.0,Partly cloudy,11.9,300,WNW,1015.0,29.97,0.0,0.0,58,50,26.5,6.0,7.0,14.8,205.3,29.7,2.0,1.0,1.7,3.5,1,1,1900-01-01 06:06:00,1900-01-01 18:31:00,1900-01-01 17:19:00,1900-01-01 04:00:00,Waxing Gibbous,93
Dharwad,15.47,75.02,27.1,Partly cloudy,11.6,278,W,1011.0,29.84,0.0,0.0,60,37,28.5,6.0,7.0,13.4,200.3,25.4,2.9,0.4,1.1,2.3,1,1,1900-01-01 06:17:00,1900-01-01 18:45:00,1900-01-01 17:36:00,1900-01-01 04:09:00,Waxing Gibbous,93
Bidar,17.9,77.55,27.8,Patchy rain possible,9.4,309,NW,1009.0,29.8,0.1,0.0,63,51,29.7,6.0,6.0,11.9,230.3,33.3,2.3,0.9,5.4,7.7,1,1,1900-01-01 06:05:00,1900-01-01 18:36:00,1900-01-01 17:30:00,1900-01-01 03:53:00,Waxing Gibbous,93
Gulbarga,17.33,76.83,29.6,Sunny,10.7,310,NW,1009.0,29.8,0.0,0.0,52,20,31.1,6.0,7.0,12.3,223.6,23.3,3.7,2.3,2.9,5.3,1,1,1900-01-01 06:08:00,1900-01-01 18:39:00,1900-01-01 17:32:00,1900-01-01 03:57:00,Waxing Gibbous,93
Gadag,15.42,75.62,28.1,Sunny,12.8,285,WNW,1010.0,29.83,0.0,0.0,53,12,29.1,6.0,7.0,14.8,190.3,27.9,2.6,0.4,1.0,1.7,1,1,1900-01-01 06:14:00,1900-01-01 18:42:00,1900-01-01 17:33:00,1900-01-01 04:06:00,Waxing Gibbous,93
Udupi,13.35,74.75,29.0,Partly cloudy,6.9,290,WNW,1011.0,29.85,0.0,0.0,75,75,32.8,3.0,7.0,6.0,175.2,31.5,0.2,0.4,5.1,7.1,1,1,1900-01-01 06:19:00,1900-01-01 18:44:00,1900-01-01 17:33:00,1900-01-01 04:14:00,Waxing Gibbous,93
Bagalkot,16.18,75.7,29.1,Sunny,13.9,293,WNW,1010.0,29.82,0.0,0.0,50,19,30.1,6.0,7.0,15.9,200.3,29.0,2.8,1.6,1.7,2.9,1,1,1900-01-01 06:14:00,1900-01-01 18:42:00,1900-01-01 17:34:00,1900-01-01 04:04:00,Waxing Gibbous,93
Hassan,13.0,76.1,25.2,Sunny,8.7,287,WNW,1012.0,29.88,0.0,0.0,62,10,26.5,6.0,7.0,10.1,178.6,24.3,1.2,0.3,0.9,1.6,1,1,1900-01-01 06:14:00,1900-01-01 18:39:00,1900-01-01 17:27:00,1900-01-01 04:09:00,Waxing Gibbous,93
Shimoga,13.92,75.57,27.2,Partly cloudy,8.3,278,W,1011.0,29.86,0.0,0.0,63,45,28.8,6.0,7.0,9.6,176.9,26.1,1.4,0.2,1.6,2.4,1,1,1900-01-01 06:16:00,1900-01-01 18:41:00,1900-01-01 17:31:00,1900-01-01 04:09:00,Waxing Gibbous,93
Bellary,15.15,76.93,30.4,Sunny,12.8,300,WNW,1010.0,29.81,0.0,0.0,47,9,31.6,6.0,8.0,14.8,193.6,20.4,8.4,30.3,2.4,4.8,1,1,1900-01-01 06:09:00,1900-01-01 18:37:00,1900-01-01 17:28:00,1900-01-01 04:01:00,Waxing Gibbous,93
Bangalore,12.98,77.58,29.0,Partly cloudy,8.1,300,WNW,1015.0,29.97,0.0,0.0,58,50,30.1,4.0,7.0,13.0,210.3,18.6,3.3,0.9,1.4,2.8,1,1,1900-01-01 06:08:00,1900-01-01 18:33:00,1900-01-01 17:21:00,1900-01-01 04:03:00,Waxing Gibbous,93
Tumkur,13.34,77.1,26.0,Partly cloudy,11.9,300,WNW,1015.0,29.97,0.0,0.0,58,50,26.6,6.0,7.0,13.4,180.2,24.3,1.1,0.4,0.8,1.8,1,1,1900-01-01 06:10:00,1900-01-01 18:35:00,1900-01-01 17:24:00,1900-01-01 04:04:00,Waxing Gibbous,93
Belgaum,15.87,74.5,25.6,Partly cloudy,11.2,273,W,1011.0,29.86,0.0,0.0,67,52,27.1,6.0,7.0,13.0,180.2,25.8,1.2,0.3,1.2,2.0,1,1,1900-01-01 06:19:00,1900-01-01 18:47:00,1900-01-01 17:39:00,1900-01-01 04:10:00,Waxing Gibbous,93
Koppal,15.35,76.15,29.0,Sunny,11.4,284,WNW,1010.0,29.83,0.0,0.0,53,25,30.4,6.0,7.0,13.2,191.9,29.7,2.1,0.6,1.3,2.4,1,1,1900-01-01 06:12:00,1900-01-01 18:40:00,1900-01-01 17:31:00,1900-01-01 04:04:00,Waxing Gibbous,93
Washim,20.1,77.15,27.6,Partly cloudy,9.4,302,WNW,1009.0,29.8,0.0,0.0,65,55,29.7,6.0,7.0,10.7,240.3,43.3,2.5,2.3,13.8,16.7,1,2,1900-01-01 06:05:00,1900-01-01 18:40:00,1900-01-01 17:36:00,1900-01-01 03:50:00,Waxing Gibbous,93
Ahmadnagar,19.08,74.73,27.1,Sunny,9.4,280,W,1010.0,29.83,0.0,0.0,55,13,28.1,6.0,7.0,10.7,180.2,30.8,0.7,0.5,2.2,3.9,1,1,1900-01-01 06:15:00,1900-01-01 18:49:00,1900-01-01 17:44:00,1900-01-01 04:02:00,Waxing Gibbous,93
Latur,18.4,76.58,27.3,Sunny,9.4,296,WNW,1010.0,29.82,0.0,0.0,59,22,28.6,6.0,7.0,10.7,207.0,28.6,1.7,0.4,2.1,3.6,1,1,1900-01-01 06:08:00,1900-01-01 18:41:00,1900-01-01 17:35:00,1900-01-01 03:56:00,Waxing Gibbous,93
Solapur,17.68,75.92,29.1,Sunny,9.6,306,NW,1010.0,29.81,0.0,0.0,50,8,30.1,6.0,7.0,11.2,200.3,27.5,1.7,0.9,2.8,5.7,1,1,1900-01-01 06:12:00,1900-01-01 18:43:00,1900-01-01 17:36:00,1900-01-01 04:00:00,Waxing Gibbous,93
Osmanabad,18.17,76.05,27.7,Sunny,12.3,291,WNW,1010.0,29.82,0.0,0.0,54,7,28.7,6.0,7.0,14.1,220.3,30.0,2.6,1.6,5.3,7.7,1,1,1900-01-01 06:11:00,1900-01-01 18:43:00,1900-01-01 17:37:00,1900-01-01 03:59:00,Waxing Gibbous,93
Kolhapur,16.7,74.22,26.0,Partly cloudy,5.6,260,W,1013.0,29.91,0.0,0.0,70,50,27.5,4.0,6.0,11.4,193.6,25.8,1.4,0.7,1.7,3.1,1,1,1900-01-01 06:19:00,1900-01-01 18:49:00,1900-01-01 17:42:00,1900-01-01 04:09:00,Waxing Gibbous,93
Chandrapur,19.95,79.3,29.3,Patchy rain possible,6.5,295,WNW,1008.0,29.76,0.1,0.0,65,87,32.5,6.0,6.0,7.8,270.4,29.3,12.3,45.8,30.7,38.0,2,3,1900-01-01 05:57:00,1900-01-01 18:31:00,1900-01-01 17:26:00,1900-01-01 03:42:00,Waxing Gibbous,93
Akola,20.73,77.0,28.7,Cloudy,15.2,297,WNW,1009.0,29.79,0.0,0.0,62,64,31.0,6.0,6.0,17.4,220.3,26.8,5.0,12.6,9.1,11.7,1,1,1900-01-01 06:05:00,1900-01-01 18:41:00,1900-01-01 17:37:00,1900-01-01 03:50:00,Waxing Gibbous,93
Parbhani,19.27,76.78,28.0,Overcast,8.3,300,WNW,1009.0,29.81,0.0,0.0,64,89,30.2,6.0,6.0,9.6,297.1,39.0,3.8,2.5,14.0,17.1,1,2,1900-01-01 06:07:00,1900-01-01 18:40:00,1900-01-01 17:36:00,1900-01-01 03:54:00,Waxing Gibbous,93
Yavatmal,20.4,78.13,28.3,Partly cloudy,12.1,305,NW,1009.0,29.78,0.0,0.0,62,45,30.4,6.0,7.0,14.3,230.3,27.9,4.0,8.0,13.4,18.6,1,2,1900-01-01 06:01:00,1900-01-01 18:36:00,1900-01-01 17:32:00,1900-01-01 03:46:00,Waxing Gibbous,93
Nanded,19.15,77.33,28.4,Partly cloudy,10.7,299,WNW,1009.0,29.8,0.0,0.0,65,36,30.9,6.0,7.0,12.3,313.8,31.1,5.2,2.8,15.4,18.7,1,2,1900-01-01 06:05:00,1900-01-01 18:38:00,1900-01-01 17:33:00,1900-01-01 03:52:00,Waxing Gibbous,93
Dhule,20.9,74.78,28.6,Cloudy,6.3,278,W,1009.0,29.8,0.0,0.0,58,87,30.3,6.0,6.0,7.2,207.0,27.2,1.8,0.9,4.3,6.1,1,1,1900-01-01 06:14:00,1900-01-01 18:50:00,1900-01-01 17:47:00,1900-01-01 03:58:00,Waxing Gibbous,93
Satara,17.68,73.98,25.0,Partly cloudy,7.6,266,W,1011.0,29.85,0.0,0.0,68,42,26.5,6.0,7.0,8.7,173.6,23.3,0.8,0.2,1.9,2.6,1,1,1900-01-01 06:19:00,1900-01-01 18:51:00,1900-01-01 17:44:00,1900-01-01 04:08:00,Waxing Gibbous,93
Sangli,16.87,74.57,26.0,Partly cloudy,5.6,260,W,1013.0,29.91,0.0,0.0,70,50,27.1,4.0,7.0,13.6,195.3,24.0,2.5,0.8,2.4,4.1,1,1,1900-01-01 06:17:00,1900-01-01 18:48:00,1900-01-01 17:40:00,1900-01-01 04:08:00,Waxing Gibbous,93
Hingoli,19.72,77.15,27.6,Partly cloudy,9.4,302,WNW,1009.0,29.8,0.0,0.0,65,55,29.7,6.0,7.0,10.7,240.3,43.3,2.5,2.3,13.8,16.7,1,2,1900-01-01 06:05:00,1900-01-01 18:39:00,1900-01-01 17:35:00,1900-01-01 03:51:00,Waxing Gibbous,93
Pune,18.53,73.87,26.4,Partly cloudy,9.8,270,W,1010.0,29.84,0.0,0.0,64,62,27.9,6.0,7.0,11.4,213.6,28.3,3.4,5.3,4.6,6.9,1,1,1900-01-01 06:19:00,1900-01-01 18:52:00,1900-01-01 17:46:00,1900-01-01 04:07:00,Waxing Gibbous,93
Amravati,20.93,77.75,28.8,Cloudy,8.3,300,WNW,1009.0,29.78,0.0,0.0,60,74,31.1,6.0,6.0,9.6,223.6,40.4,1.2,0.9,6.1,9.7,1,1,1900-01-01 06:02:00,1900-01-01 18:38:00,1900-01-01 17:35:00,1900-01-01 03:46:00,Waxing Gibbous,93
Nandurbar,21.37,74.25,29.1,Cloudy,12.8,264,W,1009.0,29.8,0.0,0.0,59,80,31.3,6.0,6.0,14.8,237.0,32.2,4.3,5.0,9.3,12.6,1,1,1900-01-01 06:15:00,1900-01-01 18:52:00,1900-01-01 17:50:00,1900-01-01 04:00:00,Waxing Gibbous,93
Ratnagiri,16.98,73.3,28.0,Partly cloudy,2.2,256,WSW,1010.0,29.83,0.0,0.0,71,30,30.9,6.0,7.0,2.0,170.2,30.4,0.4,0.3,2.5,3.4,1,1,1900-01-01 06:22:00,1900-01-01 18:53:00,1900-01-01 17:46:00,1900-01-01 04:13:00,Waxing Gibbous,93
Wardha,20.75,78.62,30.0,Mist,13.6,310,NW,1010.0,29.83,0.0,0.0,70,50,33.1,3.0,7.0,9.8,247.0,45.8,3.0,4.3,14.6,19.8,1,2,1900-01-01 05:59:00,1900-01-01 18:34:00,1900-01-01 17:31:00,1900-01-01 03:43:00,Waxing Gibbous,93
Buldana,20.53,76.18,27.3,Cloudy,10.3,306,NW,1010.0,29.82,0.0,0.0,71,63,29.8,6.0,6.0,11.9,217.0,25.8,2.0,0.8,4.9,6.7,1,1,1900-01-01 06:08:00,1900-01-01 18:44:00,1900-01-01 17:40:00,1900-01-01 03:53:00,Waxing Gibbous,93
Jalgaon,21.05,76.53,28.5,Partly cloudy,14.1,297,WNW,1009.0,29.8,0.0,0.0,63,57,30.9,6.0,7.0,16.1,212.0,24.3,4.5,11.7,8.4,10.5,1,1,1900-01-01 06:07:00,1900-01-01 18:43:00,1900-01-01 17:40:00,1900-01-01 03:51:00,Waxing Gibbous,93
Bhandara,21.17,79.65,28.6,Sunny,9.4,306,NW,1008.0,29.76,0.0,0.0,65,14,31.4,6.0,7.0,11.2,250.3,83.7,3.6,16.5,39.0,47.9,2,4,1900-01-01 05:54:00,1900-01-01 18:30:00,1900-01-01 17:27:00,1900-01-01 03:38:00,Waxing Gibbous,93
Bid,18.98,75.77,27.7,Partly cloudy,6.3,306,NW,1010.0,29.82,0.0,0.0,58,31,29.1,6.0,7.0,7.2,196.9,31.5,0.9,0.6,2.4,4.0,1,1,1900-01-01 06:11:00,1900-01-01 18:44:00,1900-01-01 17:39:00,1900-01-01 03:58:00,Waxing Gibbous,93
Jalna,19.83,75.88,27.5,Partly cloudy,10.3,298,WNW,1010.0,29.82,0.0,0.0,61,47,29.1,6.0,7.0,11.9,213.6,29.7,2.9,4.4,6.7,8.3,1,1,1900-01-01 06:10:00,1900-01-01 18:45:00,1900-01-01 17:40:00,1900-01-01 03:56:00,Waxing Gibbous,93
Thane,19.2,72.97,27.0,Moderate or heavy rain shower,8.1,260,W,1010.0,29.83,0.2,0.01,84,75,29.1,1.0,6.0,7.8,313.8,28.3,9.3,16.7,18.4,37.4,2,2,1900-01-01 06:22:00,1900-01-01 18:56:00,1900-01-01 17:51:00,1900-01-01 04:09:00,Waxing Gibbous,93
Palghar,19.68,72.75,27.0,Moderate or heavy rain shower,8.1,260,W,1010.0,29.83,0.1,0.0,84,75,29.1,1.0,6.0,8.7,212.0,30.4,3.9,5.3,12.8,27.2,1,2,1900-01-01 06:23:00,1900-01-01 18:57:00,1900-01-01 17:53:00,1900-01-01 04:09:00,Waxing Gibbous,93
Mumbai,18.98,72.83,27.0,Moderate or heavy rain shower,8.1,260,W,1010.0,29.83,0.2,0.01,84,75,29.6,1.0,6.0,9.4,330.5,22.4,12.5,18.8,16.3,23.7,2,2,1900-01-01 06:23:00,1900-01-01 18:56:00,1900-01-01 17:51:00,1900-01-01 04:11:00,Waxing Gibbous,93
Nagpur,21.15,79.1,30.0,Mist,13.6,310,NW,1010.0,29.83,0.1,0.0,70,50,33.7,3.0,6.0,11.2,287.1,62.2,4.1,8.6,26.0,31.8,2,3,1900-01-01 05:56:00,1900-01-01 18:33:00,1900-01-01 17:29:00,1900-01-01 03:40:00,Waxing Gibbous,93
Puri,19.8,85.85,32.0,Mist,10.5,320,NW,1005.0,29.68,0.0,0.0,63,50,36.4,2.0,8.0,9.8,370.5,93.0,1.7,6.8,50.2,55.1,3,6,1900-01-01 05:31:00,1900-01-01 18:05:00,1900-01-01 16:59:00,1900-01-01 03:14:00,Waxing Gibbous,93
Anugul,20.85,85.1,30.5,Sunny,7.6,304,NW,1007.0,29.72,0.0,0.0,61,11,34.2,6.0,8.0,8.7,397.2,90.8,2.5,10.7,68.1,73.8,4,9,1900-01-01 05:33:00,1900-01-01 18:08:00,1900-01-01 17:04:00,1900-01-01 03:15:00,Waxing Gibbous,93
Koraput,18.82,82.72,25.7,Partly cloudy,7.6,321,NW,1009.0,29.8,0.0,0.0,65,33,27.1,6.0,7.0,8.7,200.3,66.5,0.5,5.4,20.2,22.3,2,2,1900-01-01 05:44:00,1900-01-01 18:16:00,1900-01-01 17:10:00,1900-01-01 03:30:00,Waxing Gibbous,93
Bargarh,21.33,83.62,30.0,Sunny,6.7,281,WNW,1007.0,29.72,0.0,0.0,62,9,33.3,6.0,8.0,7.8,297.1,97.3,3.9,16.2,43.9,53.6,3,5,1900-01-01 05:38:00,1900-01-01 18:15:00,1900-01-01 17:11:00,1900-01-01 03:21:00,Waxing Gibbous,93
Jagatsinghapur,20.27,86.17,32.0,Mist,10.5,320,NW,1005.0,29.68,0.0,0.0,63,50,34.2,2.0,8.0,11.6,397.2,63.7,20.1,38.6,56.4,65.0,3,7,1900-01-01 05:29:00,1900-01-01 18:04:00,1900-01-01 16:58:00,1900-01-01 03:12:00,Waxing Gibbous,93
Khordha,20.18,85.62,32.0,Mist,10.5,320,NW,1005.0,29.68,0.0,0.0,63,50,34.2,2.0,8.0,11.6,433.9,79.4,3.5,8.9,58.3,65.2,3,7,1900-01-01 05:31:00,1900-01-01 18:06:00,1900-01-01 17:00:00,1900-01-01 03:15:00,Waxing Gibbous,93
Mayurbhanj,21.94,86.72,33.4,Sunny,6.7,346,NNW,1005.0,29.67,0.0,0.0,49,14,37.5,6.0,8.0,7.8,310.4,88.0,3.3,11.1,64.1,69.8,3,8,1900-01-01 05:25:00,1900-01-01 18:03:00,1900-01-01 16:59:00,1900-01-01 03:06:00,Waxing Gibbous,93
Malkangiri,18.35,81.9,30.8,Sunny,2.2,335,NNW,1008.0,29.76,0.0,0.0,61,15,34.8,6.0,8.0,1.6,200.3,70.1,0.8,5.5,20.0,21.6,2,2,1900-01-01 05:47:00,1900-01-01 18:19:00,1900-01-01 17:13:00,1900-01-01 03:34:00,Waxing Gibbous,93
Baleshwar,21.49,86.93,32.9,Partly cloudy,5.4,343,NNW,1004.0,29.66,0.0,0.0,50,31,36.5,6.0,8.0,6.7,350.5,97.3,2.1,11.4,105.5,112.7,4,10,1900-01-01 05:25:00,1900-01-01 18:02:00,1900-01-01 16:57:00,1900-01-01 03:06:00,Waxing Gibbous,93
Sambalpur,21.45,83.97,32.0,Mist,4.3,270,W,1007.0,29.74,0.0,0.0,67,50,37.9,2.0,7.0,7.8,367.2,104.4,3.6,14.3,49.7,58.0,3,6,1900-01-01 05:37:00,1900-01-01 18:13:00,1900-01-01 17:10:00,1900-01-01 03:19:00,Waxing Gibbous,93
Dhenkanal,20.67,85.6,32.0,Mist,10.5,320,NW,1005.0,29.68,0.0,0.0,63,50,34.4,2.0,8.0,10.5,343.8,65.8,14.6,37.2,54.7,63.8,3,7,1900-01-01 05:31:00,1900-01-01 18:06:00,1900-01-01 17:01:00,1900-01-01 03:14:00,Waxing Gibbous,93
Nayagarh,20.13,85.1,32.3,Sunny,5.8,323,NW,1006.0,29.69,0.0,0.0,52,20,35.9,6.0,8.0,6.7,257.0,66.5,0.9,2.4,26.2,30.1,2,3,1900-01-01 05:33:00,1900-01-01 18:08:00,1900-01-01 17:03:00,1900-01-01 03:17:00,Waxing Gibbous,93
Cuttack,20.5,85.83,32.0,Mist,10.5,320,NW,1005.0,29.68,0.0,0.0,63,50,34.4,2.0,8.0,10.5,343.8,65.8,14.6,37.2,54.7,63.8,3,7,1900-01-01 05:30:00,1900-01-01 18:05:00,1900-01-01 17:00:00,1900-01-01 03:13:00,Waxing Gibbous,93
Baudh,20.83,84.32,30.5,Sunny,7.6,304,NW,1007.0,29.72,0.0,0.0,61,11,34.2,6.0,8.0,8.7,397.2,90.8,2.5,10.7,68.1,73.8,4,9,1900-01-01 05:36:00,1900-01-01 18:12:00,1900-01-01 17:07:00,1900-01-01 03:19:00,Waxing Gibbous,93
Kendrapara,20.5,86.42,32.7,Sunny,6.7,329,NNW,1004.0,29.66,0.0,0.0,54,20,37.2,6.0,8.0,8.5,407.2,85.1,8.1,20.7,59.4,69.2,3,8,1900-01-01 05:28:00,1900-01-01 18:03:00,1900-01-01 16:58:00,1900-01-01 03:11:00,Waxing Gibbous,93
Ganjam,19.32,84.78,33.2,Sunny,6.7,324,NW,1005.0,29.69,0.0,0.0,48,12,36.7,6.0,8.0,7.8,250.3,78.7,0.9,2.5,27.3,31.2,2,3,1900-01-01 05:35:00,1900-01-01 18:09:00,1900-01-01 17:02:00,1900-01-01 03:20:00,Waxing Gibbous,93
Sundargarh,22.12,84.03,32.0,Mist,4.3,270,W,1007.0,29.74,0.0,0.0,67,50,35.5,2.0,8.0,8.1,300.4,91.6,1.5,4.1,39.2,44.7,2,4,1900-01-01 05:36:00,1900-01-01 18:14:00,1900-01-01 17:11:00,1900-01-01 03:17:00,Waxing Gibbous,93
Bhadrak,21.05,86.52,34.6,Sunny,2.2,311,NW,1004.0,29.66,0.0,0.0,45,19,38.7,6.0,8.0,1.1,273.7,86.6,2.3,10.1,83.8,88.6,4,10,1900-01-01 05:27:00,1900-01-01 18:03:00,1900-01-01 16:58:00,1900-01-01 03:09:00,Waxing Gibbous,93
Jharsuguda,21.85,84.03,32.0,Mist,4.3,270,W,1007.0,29.74,0.0,0.0,67,50,36.3,2.0,8.0,8.3,240.3,88.0,1.1,4.0,28.9,32.6,2,3,1900-01-01 05:36:00,1900-01-01 18:13:00,1900-01-01 17:10:00,1900-01-01 03:18:00,Waxing Gibbous,93
Rayagada,19.17,83.42,30.3,Sunny,4.9,324,NW,1007.0,29.75,0.0,0.0,56,16,33.0,6.0,8.0,5.6,205.3,67.2,0.8,1.7,9.9,11.5,1,1,1900-01-01 05:41:00,1900-01-01 18:14:00,1900-01-01 17:08:00,1900-01-01 03:26:00,Waxing Gibbous,93
Balangir,20.72,83.48,29.6,Sunny,6.0,266,W,1007.0,29.74,0.0,0.0,61,12,32.6,6.0,7.0,6.9,263.7,66.5,1.5,3.6,33.3,37.5,2,3,1900-01-01 05:39:00,1900-01-01 18:15:00,1900-01-01 17:10:00,1900-01-01 03:22:00,Waxing Gibbous,93
Jhunjhunun,28.13,75.4,32.1,Sunny,12.5,251,WSW,1005.0,29.68,0.0,0.0,48,5,34.6,6.0,8.0,14.3,198.6,60.1,1.2,1.2,32.8,160.2,2,3,1900-01-01 06:05:00,1900-01-01 18:53:00,1900-01-01 17:59:00,1900-01-01 03:39:00,Waxing Gibbous,93
Jaisalmer,26.92,70.9,31.1,Sunny,22.6,203,SSW,1004.0,29.63,0.0,0.0,50,0,33.2,6.0,8.0,25.9,181.9,40.1,0.3,0.1,9.7,40.0,1,1,1900-01-01 06:24:00,1900-01-01 19:10:00,1900-01-01 18:14:00,1900-01-01 04:01:00,Waxing Gibbous,93
Sikar,27.62,75.15,30.4,Sunny,10.5,251,WSW,1006.0,29.71,0.0,0.0,54,4,32.8,6.0,8.0,12.1,193.6,52.9,0.8,0.7,27.1,127.5,2,3,1900-01-01 06:07:00,1900-01-01 18:54:00,1900-01-01 17:59:00,1900-01-01 03:42:00,Waxing Gibbous,93
Hanumangarh,29.58,74.32,34.6,Sunny,10.7,230,SW,1004.0,29.65,0.0,0.0,41,6,37.4,6.0,8.0,12.3,200.3,48.6,7.5,22.7,31.7,137.2,2,3,1900-01-01 06:08:00,1900-01-01 18:59:00,1900-01-01 18:06:00,1900-01-01 03:40:00,Waxing Gibbous,93
Nagaur,27.2,73.73,30.4,Sunny,16.6,219,SW,1006.0,29.7,0.0,0.0,51,3,32.2,6.0,8.0,19.0,185.3,44.0,0.7,0.5,13.3,46.0,1,2,1900-01-01 06:12:00,1900-01-01 18:59:00,1900-01-01 18:03:00,1900-01-01 03:49:00,Waxing Gibbous,93
Barmer,25.75,71.38,30.3,Sunny,19.9,211,SSW,1005.0,29.68,0.0,0.0,51,0,32.0,6.0,8.0,22.8,180.2,33.3,0.7,0.8,9.3,22.8,1,1,1900-01-01 06:23:00,1900-01-01 19:07:00,1900-01-01 18:10:00,1900-01-01 04:02:00,Waxing Gibbous,93
Ganganagar,29.92,73.88,34.6,Sunny,9.8,222,SW,1004.0,29.64,0.0,0.0,41,5,37.6,6.0,8.0,11.4,227.0,59.4,1.5,0.7,38.4,177.2,2,4,1900-01-01 06:09:00,1900-01-01 19:01:00,1900-01-01 18:09:00,1900-01-01 03:41:00,Waxing Gibbous,93
Jodhpur,26.29,73.03,29.1,Sunny,17.2,214,SW,1006.0,29.71,0.0,0.0,56,6,30.9,6.0,7.0,19.9,196.9,36.8,1.4,1.2,10.1,19.9,1,1,1900-01-01 06:16:00,1900-01-01 19:01:00,1900-01-01 18:04:00,1900-01-01 03:54:00,Waxing Gibbous,93
Churu,28.3,74.95,32.5,Sunny,13.6,241,WSW,1005.0,29.68,0.0,0.0,45,5,34.7,6.0,8.0,15.7,188.6,64.4,1.0,2.1,29.6,139.6,2,3,1900-01-01 06:07:00,1900-01-01 18:55:00,1900-01-01 18:01:00,1900-01-01 03:41:00,Waxing Gibbous,93
Bikaner,28.02,73.3,32.5,Sunny,16.6,207,SSW,1004.0,29.66,0.0,0.0,43,2,34.3,6.0,8.0,19.0,181.9,51.5,0.8,2.0,17.0,74.8,2,2,1900-01-01 06:13:00,1900-01-01 19:02:00,1900-01-01 18:07:00,1900-01-01 03:48:00,Waxing Gibbous,93
Pratapgarh,24.03,74.78,27.0,Sunny,14.8,247,WSW,1009.0,29.78,0.0,0.0,66,6,28.9,6.0,7.0,17.0,247.0,31.5,2.8,4.4,13.5,17.1,1,2,1900-01-01 06:11:00,1900-01-01 18:52:00,1900-01-01 17:53:00,1900-01-01 03:52:00,Waxing Gibbous,93
Bhilwara,25.35,74.63,28.5,Sunny,11.6,238,WSW,1007.0,29.75,0.0,0.0,57,6,30.1,6.0,7.0,13.4,198.6,38.6,0.9,0.6,4.6,8.2,1,1,1900-01-01 06:11:00,1900-01-01 18:54:00,1900-01-01 17:56:00,1900-01-01 03:49:00,Waxing Gibbous,93
Tonk,26.17,75.78,30.2,Sunny,11.9,260,W,1007.0,29.72,0.0,0.0,52,0,32.2,6.0,8.0,13.6,203.6,53.6,1.1,0.7,6.3,14.9,1,1,1900-01-01 06:05:00,1900-01-01 18:50:00,1900-01-01 17:53:00,1900-01-01 03:42:00,Waxing Gibbous,93
Bundi,25.44,75.64,29.7,Sunny,13.4,262,W,1007.0,29.74,0.0,0.0,54,2,31.7,6.0,7.0,15.4,205.3,52.9,0.9,0.8,7.5,15.4,1,1,1900-01-01 06:06:00,1900-01-01 18:50:00,1900-01-01 17:52:00,1900-01-01 03:45:00,Waxing Gibbous,93
Jaipur,26.92,75.82,30.0,Mist,10.5,300,WNW,1009.0,29.8,0.0,0.0,66,50,32.4,2.0,7.0,12.3,273.7,58.7,3.3,7.0,20.9,77.9,2,2,1900-01-01 06:05:00,1900-01-01 18:51:00,1900-01-01 17:54:00,1900-01-01 03:41:00,Waxing Gibbous,93
Kota,25.18,75.83,30.1,Sunny,13.2,264,W,1007.0,29.74,0.0,0.0,54,3,32.3,6.0,8.0,15.2,220.3,48.6,3.7,13.1,10.2,18.8,1,1,1900-01-01 06:06:00,1900-01-01 18:49:00,1900-01-01 17:51:00,1900-01-01 03:45:00,Waxing Gibbous,93
Pali,25.77,73.33,29.3,Sunny,15.9,232,SW,1007.0,29.72,0.0,0.0,55,6,31.1,6.0,7.0,18.3,185.3,35.8,0.9,0.3,8.9,14.6,1,1,1900-01-01 06:15:00,1900-01-01 19:00:00,1900-01-01 18:02:00,1900-01-01 03:54:00,Waxing Gibbous,93
Rajsamand,25.07,73.88,27.0,Sunny,13.9,234,SW,1008.0,29.77,0.0,0.0,61,20,28.4,6.0,7.0,15.9,183.6,27.5,1.4,1.7,6.4,8.9,1,1,1900-01-01 06:14:00,1900-01-01 18:57:00,1900-01-01 17:59:00,1900-01-01 03:53:00,Waxing Gibbous,93
Ajmer,26.45,74.63,27.9,Sunny,13.9,249,WSW,1007.0,29.73,0.0,0.0,58,3,29.5,6.0,7.0,15.9,195.3,42.9,1.0,1.2,6.1,15.5,1,1,1900-01-01 06:10:00,1900-01-01 18:55:00,1900-01-01 17:58:00,1900-01-01 03:47:00,Waxing Gibbous,93
Bharatpur,27.22,77.48,32.5,Sunny,10.5,270,W,1005.0,29.68,0.0,0.0,47,11,35.2,6.0,8.0,12.1,277.0,75.8,3.1,2.2,21.5,58.9,2,2,1900-01-01 05:58:00,1900-01-01 18:44:00,1900-01-01 17:48:00,1900-01-01 03:33:00,Waxing Gibbous,93
Dungarpur,23.83,73.72,28.1,Partly cloudy,12.1,239,WSW,1008.0,29.78,0.0,0.0,60,53,29.9,6.0,7.0,13.9,213.6,24.7,2.2,2.9,9.5,13.4,1,1,1900-01-01 06:15:00,1900-01-01 18:56:00,1900-01-01 17:57:00,1900-01-01 03:56:00,Waxing Gibbous,93
Chittaurgarh,24.88,74.63,27.8,Sunny,14.1,236,WSW,1008.0,29.76,0.0,0.0,63,0,29.6,6.0,7.0,16.1,200.3,33.6,1.9,1.7,6.3,9.5,1,1,1900-01-01 06:11:00,1900-01-01 18:54:00,1900-01-01 17:55:00,1900-01-01 03:50:00,Waxing Gibbous,93
Jalor,25.35,72.62,27.9,Partly cloudy,16.1,219,SW,1007.0,29.74,0.0,0.0,59,36,29.5,6.0,7.0,18.6,190.3,33.6,1.3,0.9,8.8,12.5,1,1,1900-01-01 06:19:00,1900-01-01 19:02:00,1900-01-01 18:04:00,1900-01-01 03:58:00,Waxing Gibbous,93
Dausa,26.88,76.33,30.0,Mist,10.5,300,WNW,1009.0,29.8,0.0,0.0,66,50,31.9,2.0,8.0,12.3,223.6,59.4,1.9,0.9,20.8,93.6,2,2,1900-01-01 06:03:00,1900-01-01 18:48:00,1900-01-01 17:52:00,1900-01-01 03:38:00,Waxing Gibbous,93
Sirohi,24.88,72.87,27.9,Partly cloudy,16.1,219,SW,1007.0,29.74,0.0,0.0,59,36,29.5,6.0,7.0,18.6,190.3,33.6,1.3,0.9,8.8,12.5,1,1,1900-01-01 06:18:00,1900-01-01 19:01:00,1900-01-01 18:02:00,1900-01-01 03:58:00,Waxing Gibbous,93
Ariyalur,11.13,79.08,33.0,Partly cloudy,13.6,280,W,1009.0,29.8,0.4,0.02,59,50,38.3,3.0,7.0,13.9,270.4,42.6,5.4,3.5,9.2,13.2,1,1,1900-01-01 06:04:00,1900-01-01 18:25:00,1900-01-01 17:12:00,1900-01-01 04:00:00,Waxing Gibbous,93
Sivaganga,9.87,78.48,34.0,Partly cloudy,4.3,30,NNE,1009.0,29.8,0.4,0.02,50,25,41.1,3.0,7.0,8.5,270.4,35.1,3.7,0.8,4.4,6.4,1,1,1900-01-01 06:07:00,1900-01-01 18:27:00,1900-01-01 17:12:00,1900-01-01 04:05:00,Waxing Gibbous,93
Thanjavur,10.8,79.15,33.0,Partly cloudy,13.6,280,W,1009.0,29.8,0.6,0.02,59,50,37.9,3.0,7.0,14.1,263.7,36.1,5.7,4.5,6.8,10.2,1,1,1900-01-01 06:04:00,1900-01-01 18:25:00,1900-01-01 17:11:00,1900-01-01 04:01:00,Waxing Gibbous,93
Tiruvannamalai,12.22,79.07,32.4,Partly cloudy,8.7,301,WNW,1008.0,29.78,0.0,0.0,47,49,35.0,6.0,8.0,10.1,223.6,28.3,3.1,1.8,3.1,5.2,1,1,1900-01-01 06:03:00,1900-01-01 18:26:00,1900-01-01 17:13:00,1900-01-01 03:58:00,Waxing Gibbous,93
Ramanathapuram,9.38,78.83,31.2,Sunny,14.3,211,SSW,1009.0,29.8,0.0,0.0,59,23,35.3,6.0,8.0,16.6,247.0,40.4,5.4,1.9,5.4,6.6,1,1,1900-01-01 06:06:00,1900-01-01 18:25:00,1900-01-01 17:10:00,1900-01-01 04:05:00,Waxing Gibbous,93
Tirunelveli,8.73,77.7,32.9,Partly cloudy,2.2,260,W,1009.0,29.78,0.0,0.0,46,25,35.6,6.0,8.0,1.8,188.6,30.0,1.7,0.6,1.0,1.9,1,1,1900-01-01 06:11:00,1900-01-01 18:29:00,1900-01-01 17:13:00,1900-01-01 04:10:00,Waxing Gibbous,93
Thiruvarur,10.77,79.65,31.3,Partly cloudy,8.5,241,WSW,1009.0,29.79,0.0,0.0,58,45,35.3,6.0,8.0,9.8,297.1,36.5,9.1,9.1,8.9,13.1,1,1,1900-01-01 06:02:00,1900-01-01 18:23:00,1900-01-01 17:09:00,1900-01-01 03:59:00,Waxing Gibbous,93
Tiruchirappalli,10.81,78.69,33.0,Partly cloudy,13.6,280,W,1009.0,29.8,0.2,0.01,59,50,35.7,3.0,7.0,14.8,257.0,40.4,4.2,1.8,8.1,11.9,1,1,1900-01-01 06:06:00,1900-01-01 18:27:00,1900-01-01 17:13:00,1900-01-01 04:03:00,Waxing Gibbous,93
Tiruppur,11.1,77.35,31.0,Partly cloudy,4.3,190,S,1011.0,29.85,0.0,0.0,52,25,33.1,3.0,8.0,7.4,300.4,36.8,6.6,5.3,10.6,14.3,1,1,1900-01-01 06:11:00,1900-01-01 18:32:00,1900-01-01 17:19:00,1900-01-01 04:07:00,Waxing Gibbous,93
Salem,11.65,78.17,29.3,Partly cloudy,4.3,321,NW,1010.0,29.82,0.0,0.0,60,44,31.7,6.0,7.0,4.9,205.3,30.4,2.5,2.7,2.4,4.1,1,1,1900-01-01 06:07:00,1900-01-01 18:29:00,1900-01-01 17:16:00,1900-01-01 04:03:00,Waxing Gibbous,93
Madurai,9.93,78.12,34.0,Partly cloudy,4.3,30,NNE,1009.0,29.8,0.0,0.0,50,25,38.6,3.0,8.0,1.1,247.0,35.8,3.8,2.0,2.5,3.9,1,1,1900-01-01 06:08:00,1900-01-01 18:28:00,1900-01-01 17:14:00,1900-01-01 04:07:00,Waxing Gibbous,93
Perambalur,11.23,78.88,33.0,Partly cloudy,13.6,280,W,1009.0,29.8,0.2,0.01,59,50,35.9,3.0,7.0,14.1,257.0,40.4,4.2,1.8,8.1,11.9,1,1,1900-01-01 06:04:00,1900-01-01 18:26:00,1900-01-01 17:13:00,1900-01-01 04:01:00,Waxing Gibbous,93
Dindigul,10.35,77.95,34.0,Partly cloudy,4.3,30,NNE,1009.0,29.8,0.0,0.0,50,25,38.9,3.0,8.0,4.5,183.6,22.4,1.8,0.5,1.3,3.1,1,1,1900-01-01 06:09:00,1900-01-01 18:29:00,1900-01-01 17:15:00,1900-01-01 04:06:00,Waxing Gibbous,93
Karur,10.95,78.08,32.2,Patchy rain possible,9.4,298,WNW,1009.0,29.8,0.1,0.0,48,70,34.9,6.0,7.0,11.2,230.3,41.5,3.0,1.8,4.7,6.8,1,1,1900-01-01 06:08:00,1900-01-01 18:29:00,1900-01-01 17:15:00,1900-01-01 04:05:00,Waxing Gibbous,93
Dharmapuri,12.13,78.17,29.5,Partly cloudy,11.2,302,WNW,1010.0,29.83,0.0,0.0,48,33,30.5,6.0,7.0,13.0,287.1,19.3,7.5,4.8,3.5,5.8,1,1,1900-01-01 06:07:00,1900-01-01 18:30:00,1900-01-01 17:17:00,1900-01-01 04:02:00,Waxing Gibbous,93
Namakkal,11.23,78.17,29.2,Patchy rain possible,4.3,305,NW,1010.0,29.82,0.1,0.0,62,82,31.9,6.0,6.0,5.1,263.7,34.7,5.3,3.5,5.8,8.7,1,1,1900-01-01 06:07:00,1900-01-01 18:29:00,1900-01-01 17:16:00,1900-01-01 04:04:00,Waxing Gibbous,93
Moradabad,28.83,78.78,30.6,Patchy rain possible,3.8,328,NNW,1004.0,29.66,0.1,0.0,65,80,35.3,6.0,7.0,4.7,433.9,114.4,3.5,9.3,51.1,81.4,3,6,1900-01-01 05:51:00,1900-01-01 18:40:00,1900-01-01 17:46:00,1900-01-01 03:23:00,Waxing Gibbous,93
Sambhal,28.58,78.55,31.7,Sunny,5.8,308,NW,1004.0,29.66,0.0,0.0,60,11,36.5,6.0,8.0,6.7,514.0,120.2,4.3,13.2,87.8,141.7,4,10,1900-01-01 05:52:00,1900-01-01 18:41:00,1900-01-01 17:47:00,1900-01-01 03:25:00,Waxing Gibbous,93
Budaun,28.05,79.12,32.2,Sunny,5.6,286,WNW,1004.0,29.65,0.0,0.0,56,9,36.6,6.0,8.0,6.5,487.3,105.9,4.5,9.2,64.1,96.7,3,8,1900-01-01 05:51:00,1900-01-01 18:38:00,1900-01-01 17:43:00,1900-01-01 03:24:00,Waxing Gibbous,93
Bahraich,27.58,81.6,32.5,Patchy rain possible,5.6,294,WNW,1004.0,29.65,0.3,0.01,53,86,36.4,5.0,7.0,7.6,413.9,93.0,4.4,13.1,68.3,95.5,4,9,1900-01-01 05:41:00,1900-01-01 18:28:00,1900-01-01 17:32:00,1900-01-01 03:14:00,Waxing Gibbous,93
Hapur,28.72,77.78,32.2,Sunny,10.3,309,NW,1005.0,29.67,0.0,0.0,52,9,35.7,6.0,8.0,11.9,480.7,101.6,8.5,16.0,44.3,122.7,3,5,1900-01-01 05:55:00,1900-01-01 18:44:00,1900-01-01 17:50:00,1900-01-01 03:28:00,Waxing Gibbous,93
Sitapur,27.57,80.68,32.0,Patchy rain possible,5.4,265,W,1004.0,29.66,0.1,0.0,58,82,36.6,6.0,7.0,6.7,373.8,93.0,7.1,19.8,41.7,57.3,3,4,1900-01-01 05:45:00,1900-01-01 18:32:00,1900-01-01 17:36:00,1900-01-01 03:18:00,Waxing Gibbous,93
Meerut,28.98,77.7,32.3,Sunny,8.9,298,WNW,1005.0,29.67,0.0,0.0,51,8,35.7,6.0,8.0,10.3,694.3,115.9,9.7,9.8,62.4,128.1,3,8,1900-01-01 05:55:00,1900-01-01 18:45:00,1900-01-01 17:51:00,1900-01-01 03:27:00,Waxing Gibbous,93
Aligarh,27.88,78.08,32.7,Sunny,9.6,296,WNW,1005.0,29.67,0.0,0.0,49,10,36.0,6.0,8.0,11.2,300.4,77.3,3.0,2.1,21.2,55.5,2,2,1900-01-01 05:55:00,1900-01-01 18:42:00,1900-01-01 17:47:00,1900-01-01 03:29:00,Waxing Gibbous,93
Bulandshahr,28.4,77.85,33.0,Sunny,8.9,305,NW,1005.0,29.67,0.0,0.0,48,10,36.1,6.0,8.0,10.3,454.0,63.7,19.9,46.3,35.2,101.8,2,3,1900-01-01 05:55:00,1900-01-01 18:44:00,1900-01-01 17:49:00,1900-01-01 03:28:00,Waxing Gibbous,93
Bijnor,29.15,78.27,31.2,Patchy rain possible,4.9,297,WNW,1005.0,29.66,0.2,0.01,63,87,36.2,5.0,7.0,6.5,734.3,120.2,5.1,8.5,105.4,145.7,4,10,1900-01-01 05:53:00,1900-01-01 18:43:00,1900-01-01 17:49:00,1900-01-01 03:25:00,Waxing Gibbous,93
Baghpat,28.95,77.22,31.0,Mist,6.9,270,W,1006.0,29.71,0.0,0.0,63,0,32.3,3.0,8.0,10.7,263.7,73.7,2.4,2.3,25.5,106.2,2,3,1900-01-01 05:57:00,1900-01-01 18:47:00,1900-01-01 17:53:00,1900-01-01 03:30:00,Waxing Gibbous,93
Kheri,27.9,80.8,31.9,Patchy rain possible,4.5,270,W,1004.0,29.65,0.4,0.02,56,86,36.1,5.0,7.0,6.7,474.0,108.7,2.1,8.1,77.2,110.0,4,10,1900-01-01 05:44:00,1900-01-01 18:31:00,1900-01-01 17:36:00,1900-01-01 03:17:00,Waxing Gibbous,93
Rampur,28.82,79.03,29.3,Patchy rain possible,2.9,10,N,1005.0,29.66,0.1,0.0,70,82,33.5,6.0,6.0,3.6,440.6,124.5,6.4,23.1,60.5,80.7,3,8,1900-01-01 05:50:00,1900-01-01 18:39:00,1900-01-01 17:45:00,1900-01-01 03:22:00,Waxing Gibbous,93
Bareilly,28.35,79.42,31.5,Patchy rain possible,3.4,294,WNW,1004.0,29.65,0.2,0.01,62,78,36.6,6.0,7.0,4.5,707.6,137.3,6.5,20.7,134.4,172.9,4,10,1900-01-01 05:49:00,1900-01-01 18:37:00,1900-01-01 17:43:00,1900-01-01 03:22:00,Waxing Gibbous,93
